[
    {
        "Order": 1,
        "Name": "Banteay Neang",
        "Khmer": "បន្ទាយនាង",
        "Geocode": 10201,
        "number of Villages": 19,
        "District": "Mongkol Borei",
        "Province": " Banteay Meanchey",
        "Latitude": 13.5108093,
        "Longitude": 103.0155323,
        "neighbors": [
            "Srah Reang",
            "Ruessei Kraok",
            "Bat Trang",
            "Ta Lam",
            "Ou Prasat",
            "Kouk Ballangk"
        ]
    },
    {
        "Order": 2,
        "Name": "Bat Trang",
        "Khmer": "បត់ត្រង់",
        "Geocode": 10202,
        "number of Villages": 11,
        "District": "Mongkol Borei",
        "Province": "Banteay Meanchey ",
        "Latitude": 13.5162836,
        "Longitude": 102.9879501,
        "neighbors": [
            "Preah Ponlea",
            "Ou Ambel",
            "Ruessei Kraok",
            "Banteay Neang",
            "Rohat Tuek",
            "Ou Prasat"
        ]
    },
    {
        "Order": 3,
        "Name": "Chamnaom",
        "Khmer": "ចំណោម",
        "Geocode": 10203,
        "number of Villages": 18,
        "District": "Mongkol Borei",
        "Province": "Banteay Meanchey  ",
        "Latitude": 13.4434083,
        "Longitude": 102.9367153,
        "neighbors": [
            "Samraong",
            "Ta Kong",
            "Rohat Tuek",
            "Soea",
            "Phnum Touch"
        ]
    },
    {
        "Order": 4,
        "Name": "Kouk Ballangk",
        "Khmer": "គោកបល្ល័ង្គ",
        "Geocode": 10204,
        "number of Villages": 8,
        "District": "Mongkol Borei",
        "Province": "Banteay Meanchey ",
        "Latitude": 13.4813532,
        "Longitude": 103.1618498,
        "neighbors": [
            "Preak Netr Preah",
            "Srah Reang",
            "Ta Lam",
            "Banteay Neang",
            "Ou Prasat",
            "Sambuor",
            "Phnum Touch"
        ]
    },
    {
        "Order": 5,
        "Name": "Koy Maeng",
        "Khmer": "គយម៉ែង",
        "Geocode": 10205,
        "number of Villages": 8,
        "District": "Mongkol Borei",
        "Province": "Banteay Meanchey ",
        "Latitude": 13.5531706,
        "Longitude": 103.0926238,
        "neighbors": [
            "Chnuor Mean Chey",
            "Phniet",
            "Preak Netr Preah",
            "Kaoh Pong Satv",
            "Ruessei Kraok",
            "Ta Lam"
        ]
    },
    {
        "Order": 6,
        "Name": "Ou Prasat",
        "Khmer": "អូរប្រាសាទ",
        "Geocode": 10206,
        "number of Villages": 14,
        "District": "Mongkol Borei",
        "Province": "Banteay Meanchey ",
        "Latitude": 13.4498324,
        "Longitude": 103.0157697,
        "neighbors": [
            "Bat Trang",
            "Banteay Neang",
            "Rohat Tuek",
            "Kouk Ballangk",
            "Phnum Touch"
        ]
    },
    {
        "Order": 7,
        "Name": "Phnum Touch",
        "Khmer": "ភ្នំតូច",
        "Geocode": 10207,
        "number of Villages": 10,
        "District": "Mongkol Borei",
        "Province": "Banteay Meanchey ",
        "Latitude": 13.410483065412516,
        "Longitude": 103.03438834174845,
        "neighbors": [
            "Rohat Tuek",
            "Ou Prasat",
            "Chamnaom",
            "Kouk Ballangk",
            "Soea",
            "Sambuor",
            "Boeng Pring"
        ]
    },
    {
        "Order": 8,
        "Name": "Rohat Tuek",
        "Khmer": "រហាត់ទឹក",
        "Geocode": 10208,
        "number of Villages": 13,
        "District": "Mongkol Borei",
        "Province": "Banteay Meanchey ",
        "Latitude": 13.4848902,
        "Longitude": 102.9831366,
        "neighbors": [
            "Ou Ambel",
            "Samraong",
            "Bat Trang",
            "Ou Prasat",
            "Chamnaom",
            "Phnum Touch"
        ]
    },
    {
        "Order": 9,
        "Name": "Ruessei Kraok",
        "Khmer": "ឫស្សីក្រោក",
        "Geocode": 10209,
        "number of Villages": 17,
        "District": "Mongkol Borei",
        "Province": "Banteay Meanchey ",
        "Latitude": 13.5373823,
        "Longitude": 103.0228322,
        "neighbors": [
            "Preah Ponlea",
            "Kaoh Pong Satv",
            "Koy Maeng",
            "Bat Trang",
            "Ta Lam",
            "Banteay Neang"
        ]
    },
    {
        "Order": 10,
        "Name": "Sambuor",
        "Khmer": "សំបួរ",
        "Geocode": 10210,
        "number of Villages": 11,
        "District": "Mongkol Borei",
        "Province": "Banteay Meanchey ",
        "Latitude": 13.433690896718288,
        "Longitude": 103.19882417140464,
        "neighbors": [
            "Rohal",
            "Phnum Lieb",
            "Preak Netr Preah",
            "Kouk Ballangk",
            "Phnum Touch",
            "Boeng Pring",
            "Chrouy Sdau",
            "Prey Chas"
        ]
    },
    {
        "Order": 11,
        "Name": "Soea",
        "Khmer": "សឿ",
        "Geocode": 10211,
        "number of Villages": 13,
        "District": "Mongkol Borei",
        "Province": "Banteay Meanchey ",
        "Latitude": 13.3918589,
        "Longitude": 102.9291569,
        "neighbors": [
            "Tuol Pongro",
            "Ta Kong",
            "Chamnaom",
            "Phnum Touch",
            "Prey Khpos",
            "Boeng Pring",
            "Lvea",
            "Boeung Pram",
            "Chrey Seima",
            "Sampov Lun",
            "Ta Sda"
        ]
    },
    {
        "Order": 12,
        "Name": "Srah Reang",
        "Khmer": "ស្រះរាំង",
        "Geocode": 10212,
        "number of Villages": 9,
        "District": "Mongkol Borei",
        "Province": "Banteay Meanchey ",
        "Latitude": 13.4971872,
        "Longitude": 103.0990343,
        "neighbors": [
            "Ta Lam",
            "Banteay Neang",
            "Kouk Ballangk"
        ]
    },
    {
        "Order": 13,
        "Name": "Ta Lam",
        "Khmer": "តាឡំ",
        "Geocode": 10213,
        "number of Villages": 8,
        "District": "Mongkol Borei",
        "Province": "Banteay Meanchey ",
        "Latitude": 13.521751,
        "Longitude": 103.1002536,
        "neighbors": [
            "Preak Netr Preah",
            "Srah Reang",
            "Koy Maeng",
            "Ruessei Kraok",
            "Banteay Neang",
            "Kouk Ballangk"
        ]
    },
    {
        "Order": 14,
        "Name": "Nam Tau",
        "Khmer": "ណាំតៅ",
        "Geocode": 10301,
        "number of Villages": 18,
        "District": "Phnum Srok",
        "Province": "Banteay Meanchey ",
        "Latitude": 13.8922206,
        "Longitude": 103.402073,
        "neighbors": [
            "Beng",
            "Cheung Tien",
            "Poy Char",
            "Prei",
            "Phnum Dei",
            "Tram Sasar",
            "Spean Sraeng"
        ]
    },
    {
        "Order": 15,
        "Name": "Poy Char",
        "Khmer": "ប៉ោយចារ",
        "Geocode": 10302,
        "number of Villages": 10,
        "District": "Phnum Srok",
        "Province": "Banteay Meanchey ",
        "Latitude": 13.7807638,
        "Longitude": 103.3149254,
        "neighbors": [
            "Beng",
            "Nam Tau",
            "Ponley",
            "Phnum Dei",
            "Srah Chik"
        ]
    },
    {
        "Order": 16,
        "Name": "Ponley",
        "Khmer": "ពន្លៃ",
        "Geocode": 10303,
        "number of Villages": 6,
        "District": "Phnum Srok",
        "Province": "Banteay Meanchey ",
        "Latitude": 13.8119392,
        "Longitude": 103.1896543,
        "neighbors": [
            "Beng",
            "Tean Kam",
            "Poy Char",
            "Kouk Kakthen",
            "Phkoam",
            "Sarongk",
            "Srah Chik"
        ]
    },
    {
        "Order": 17,
        "Name": "Spean Sraeng",
        "Khmer": "ស្ពានស្រែង",
        "Geocode": 10304,
        "number of Villages": 6,
        "District": "Phnum Srok",
        "Province": "Banteay Meanchey ",
        "Latitude": 13.7014178,
        "Longitude": 103.4101027,
        "neighbors": [
            "Nam Tau",
            "Phnum Dei",
            "Tram Sasar",
            "Chanleas Dai",
            "Ta An",
            "Tuek Chour"
        ]
    },
    {
        "Order": 18,
        "Name": "Srah Chik",
        "Khmer": "ស្រះជីក",
        "Geocode": 10305,
        "number of Villages": 9,
        "District": "Phnum Srok",
        "Province": "Banteay Meanchey ",
        "Latitude": 13.7437439,
        "Longitude": 103.3377507,
        "neighbors": [
            "Tean Kam",
            "Poy Char",
            "Ponley",
            "Phnum Dei",
            "Rohal",
            "Tuek Chour"
        ]
    },
    {
        "Order": 19,
        "Name": "Phnum Dei",
        "Khmer": "ភ្នំដី",
        "Geocode": 10306,
        "number of Villages": 11,
        "District": "Phnum Srok",
        "Province": "Banteay Meanchey ",
        "Latitude": 13.7338981,
        "Longitude": 103.3707086,
        "neighbors": [
            "Nam Tau",
            "Poy Char",
            "Srah Chik",
            "Spean Sraeng",
            "Tuek Chour"
        ]
    },
    {
        "Order": 20,
        "Name": "Chnuor Mean Chey",
        "Khmer": "ឈ្នួរមានជ័យ",
        "Geocode": 10401,
        "number of Villages": 12,
        "District": "Preah Netr",
        "Province": "Banteay Meanchey ",
        "Latitude": 13.6324772,
        "Longitude": 103.1033536,
        "neighbors": [
            "Chob Vari",
            "Bos Sbov",
            "Phniet",
            "Preak Netr Preah",
            "Koy Maeng"
        ]
    },
    {
        "Order": 21,
        "Name": "Chob Vari",
        "Khmer": "ជប់វារី",
        "Geocode": 10402,
        "number of Villages": 11,
        "District": "Preah Netr",
        "Province": "Banteay Meanchey ",
        "Latitude": 13.623858,
        "Longitude": 103.1830039,
        "neighbors": [
            "Tean Kam",
            "Bos Sbov",
            "Rohal",
            "Chnuor Mean Chey",
            "Preak Netr Preah"
        ]
    },
    {
        "Order": 22,
        "Name": "Phnum Lieb",
        "Khmer": "ភ្នំលៀប",
        "Geocode": 10403,
        "number of Villages": 16,
        "District": "Preah Netr",
        "Province": "Banteay Meanchey ",
        "Latitude": 13.6039304,
        "Longitude": 103.3199672,
        "neighbors": [
            "Rohal",
            "Tuek Chour",
            "Prasat",
            "Sambuor",
            "Chrouy Sdau",
            "Prey Chas"
        ]
    },
    {
        "Order": 23,
        "Name": "Prasat",
        "Khmer": "ប្រាសាទ",
        "Geocode": 10404,
        "number of Villages": 14,
        "District": "Preah Netr",
        "Province": "Banteay Meanchey ",
        "Latitude": 13.4682647,
        "Longitude": 103.349955,
        "neighbors": [
            "Tuek Chour",
            "Phnum Lieb",
            "Kralanh",
            "Sambuor",
            "Prey Chas"
        ]
    },
    {
        "Order": 24,
        "Name": "Preak Netr Preah",
        "Khmer": "ព្រះនេត្រព្រះ",
        "Geocode": 10405,
        "number of Villages": 13,
        "District": "Preah Netr",
        "Province": "Banteay Meanchey ",
        "Latitude": 13.6209301,
        "Longitude": 103.1826862,
        "neighbors": [
            "Chob Vari",
            "Rohal",
            "Chnuor Mean Chey",
            "Koy Maeng",
            "Ta Lam",
            "Kouk Ballangk",
            "Sambuor"
        ]
    },
    {
        "Order": 25,
        "Name": "Rohal",
        "Khmer": "រហាល",
        "Geocode": 10406,
        "number of Villages": 11,
        "District": "Preah Netr",
        "Province": "Banteay Meanchey ",
        "Latitude": 13.630404,
        "Longitude": 103.2182923,
        "neighbors": [
            "Tean Kam",
            "Chob Vari",
            "Srah Chik",
            "Tuek Chour",
            "Phnum Lieb",
            "Preak Netr Preah",
            "Sambuor"
        ]
    },
    {
        "Order": 26,
        "Name": "Tean Kam",
        "Khmer": "ទានកាំ",
        "Geocode": 10407,
        "number of Villages": 6,
        "District": "Preah Netr",
        "Province": "Banteay Meanchey ",
        "Latitude": 13.7086445,
        "Longitude": 103.2261635,
        "neighbors": [
            "Ponley",
            "Chob Vari",
            "Sarongk",
            "Srah Chik",
            "Bos Sbov",
            "Rohal"
        ]
    },
    {
        "Order": 27,
        "Name": "Tuek Chour",
        "Khmer": "ទឹកជោរ",
        "Geocode": 10408,
        "number of Villages": 18,
        "District": "Preah Netr",
        "Province": "Banteay Meanchey ",
        "Latitude": 13.6519035,
        "Longitude": 103.3620811,
        "neighbors": [
            "Phnum Dei",
            "Srah Chik",
            "Spean Sraeng",
            "Rohal",
            "Ta An",
            "Phnum Lieb",
            "Kampong Thkov",
            "Kralanh",
            "Prasat"
        ]
    },
    {
        "Order": 28,
        "Name": "Bos Sbov",
        "Khmer": "បុស្បូវ",
        "Geocode": 10409,
        "number of Villages": 17,
        "District": "Preah Netr",
        "Province": "Banteay Meanchey ",
        "Latitude": 13.6825462,
        "Longitude": 103.0536738,
        "neighbors": [
            "Tean Kam",
            "Ta Phou",
            "Chob Vari",
            "Sarongk",
            "Mkak",
            "Chnuor Mean Chey",
            "Kampong Svay",
            "Phniet"
        ]
    },
    {
        "Order": 29,
        "Name": "Changha",
        "Khmer": "ចង្ហា",
        "Geocode": 10501,
        "number of Villages": 6,
        "District": "Ou Chrov",
        "Province": "Banteay Meanchey ",
        "Latitude": 13.6512761,
        "Longitude": 102.885079,
        "neighbors": [
            "Sla Kram",
            "Soengh",
            "Mkak",
            "Souphi",
            "Koub",
            "Kampong Svay",
            "Tuek Thla",
            "Samraong"
        ]
    },
    {
        "Order": 30,
        "Name": "Koub",
        "Khmer": "កូប",
        "Geocode": 10502,
        "number of Villages": 11,
        "District": "Ou Chrov",
        "Province": "Banteay Meanchey ",
        "Latitude": 13.609095,
        "Longitude": 102.7648293,
        "neighbors": [
            "Ou Beichoan",
            "Nimitt",
            "Changha",
            "Souphi",
            "Kuttasat",
            "Samraong"
        ]
    },
    {
        "Order": 31,
        "Name": "Kuttasat",
        "Khmer": "គុត្ដសត",
        "Geocode": 10503,
        "number of Villages": 4,
        "District": "Ou Chrov",
        "Province": "Banteay Meanchey ",
        "Latitude": 13.586266,
        "Longitude": 102.7624709,
        "neighbors": [
            "Nimitt",
            "Koub",
            "Samraong",
            "Ta Kong"
        ]
    },
    {
        "Order": 32,
        "Name": "Samraong",
        "Khmer": "សំរោង",
        "Geocode": 10505,
        "number of Villages": 10,
        "District": "Ou Chrov",
        "Province": "Banteay Meanchey ",
        "Latitude": 13.5556244,
        "Longitude": 102.8375933,
        "neighbors": [
            "Changha",
            "Koub",
            "Tuek Thla",
            "Ou Ambel",
            "Kuttasat",
            "Ta Kong",
            "Rohat Tuek",
            "Chamnaom"
        ]
    },
    {
        "Order": 33,
        "Name": "Souphi",
        "Khmer": "សូភី",
        "Geocode": 10506,
        "number of Villages": 5,
        "District": "Ou Chrov",
        "Province": "Banteay Meanchey ",
        "Latitude": 13.6403791,
        "Longitude": 102.8339041,
        "neighbors": [
            "Ou Beichoan",
            "Soengh",
            "Changha",
            "Koub"
        ]
    },
    {
        "Order": 34,
        "Name": "Soengh",
        "Khmer": "សឹង្ហ",
        "Geocode": 10507,
        "number of Villages": 9,
        "District": "Ou Chrov",
        "Province": "Banteay Meanchey ",
        "Latitude": 13.7149196,
        "Longitude": 102.8350513,
        "neighbors": [
            "Sla Kram",
            "Ou Beichoan",
            "Changha",
            "Mkak",
            "Souphi"
        ]
    },
    {
        "Order": 35,
        "Name": "Ou Beichoan",
        "Khmer": "អូរបីជាន់",
        "Geocode": 10509,
        "number of Villages": 11,
        "District": "Ou Chrov",
        "Province": "Banteay Meanchey ",
        "Latitude": 13.728315,
        "Longitude": 102.7451574,
        "neighbors": [
            "Sla Kram",
            "Soengh",
            "Phsar Kandal",
            "Nimitt",
            "Souphi",
            "Koub"
        ]
    },
    {
        "Order": 36,
        "Name": "Kampong Svay",
        "Khmer": "កំពង់ស្វាយ",
        "Geocode": 10602,
        "number of Villages": 9,
        "District": "Serei Saophoan",
        "Province": "Banteay Meanchey ",
        "Latitude": 13.6020467,
        "Longitude": 102.9669332,
        "neighbors": [
            "Bos Sbov",
            "Changha",
            "Mkak",
            "Phniet",
            "Tuek Thla",
            "Preah Ponlea",
            "Ou Ambel"
        ]
    },
    {
        "Order": 37,
        "Name": "Kaoh Pong Satv",
        "Khmer": "កោះពងសត្វ",
        "Geocode": 10603,
        "number of Villages": 5,
        "District": "Serei Saophoan",
        "Province": "Banteay Meanchey ",
        "Latitude": 13.5821268,
        "Longitude": 103.0471633,
        "neighbors": [
            "Phniet",
            "Preah Ponlea",
            "Koy Maeng",
            "Ruessei Kraok"
        ]
    },
    {
        "Order": 38,
        "Name": "Mkak",
        "Khmer": "ម្កាក់",
        "Geocode": 10604,
        "number of Villages": 7,
        "District": "Serei Saophoan",
        "Province": "Banteay Meanchey ",
        "Latitude": 13.6674542,
        "Longitude": 102.9594434,
        "neighbors": [
            "Sla Kram",
            "Ta Phou",
            "Soengh",
            "Bos Sbov",
            "Changha",
            "Kampong Svay"
        ]
    },
    {
        "Order": 39,
        "Name": "Ou Ambel",
        "Khmer": "អូរអំបិល",
        "Geocode": 10605,
        "number of Villages": 5,
        "District": "Serei Saophoan",
        "Province": "Banteay Meanchey ",
        "Latitude": 13.5879261,
        "Longitude": 102.9683846,
        "neighbors": [
            "Kampong Svay",
            "Tuek Thla",
            "Preah Ponlea",
            "Samraong",
            "Bat Trang",
            "Rohat Tuek"
        ]
    },
    {
        "Order": 40,
        "Name": "Phniet",
        "Khmer": "ភ្នៀត",
        "Geocode": 10606,
        "number of Villages": 7,
        "District": "Serei Saophoan",
        "Province": "Banteay Meanchey ",
        "Latitude": 13.6235865,
        "Longitude": 103.0466742,
        "neighbors": [
            "Bos Sbov",
            "Chnuor Mean Chey",
            "Kampong Svay",
            "Preah Ponlea",
            "Kaoh Pong Satv",
            "Koy Maeng"
        ]
    },
    {
        "Order": 41,
        "Name": "Preah Ponlea",
        "Khmer": "ព្រះពន្លា",
        "Geocode": 10607,
        "number of Villages": 7,
        "District": "Serei Saophoan",
        "Province": "Banteay Meanchey ",
        "Latitude": 13.5833746,
        "Longitude": 102.9810091,
        "neighbors": [
            "Kampong Svay",
            "Phniet",
            "Ou Ambel",
            "Kaoh Pong Satv",
            "Ruessei Kraok",
            "Bat Trang"
        ]
    },
    {
        "Order": 42,
        "Name": "Tuek Thla",
        "Khmer": "ទឹកថ្លា",
        "Geocode": 10608,
        "number of Villages": 6,
        "District": "Serei Saophoan",
        "Province": "Banteay Meanchey ",
        "Latitude": 13.5852183,
        "Longitude": 102.9372932,
        "neighbors": [
            "Changha",
            "Kampong Svay",
            "Ou Ambel",
            "Samraong"
        ]
    },
    {
        "Order": 43,
        "Name": "Banteay Chhmar",
        "Khmer": "បន្ទាយឆ្មារ",
        "Geocode": 10701,
        "number of Villages": 14,
        "District": "Thma Puok",
        "Province": "Banteay Meanchey ",
        "Latitude": 14.0711637,
        "Longitude": 103.0990809,
        "neighbors": [
            "Kouk Mon",
            "Ampil",
            "Beng",
            "Kumru",
            "Kouk Romiet",
            "Thma Puok"
        ]
    },
    {
        "Order": 44,
        "Name": "Kouk Romiet",
        "Khmer": "គោករមៀត",
        "Geocode": 10702,
        "number of Villages": 21,
        "District": "Thma Puok",
        "Province": "Banteay Meanchey ",
        "Latitude": 13.9983,
        "Longitude": 102.9481124,
        "neighbors": [
            "Banteay Chhmar",
            "Kumru",
            "Thma Puok",
            "Phum Thmei",
            "Svay Chek",
            "Treas"
        ]
    },
    {
        "Order": 45,
        "Name": "Phum Thmei",
        "Khmer": "ភូមិថ្មី",
        "Geocode": 10703,
        "number of Villages": 7,
        "District": "Thma Puok",
        "Province": "Banteay Meanchey ",
        "Latitude": 13.9041465,
        "Longitude": 103.0653831,
        "neighbors": [
            "Kumru",
            "Kouk Romiet",
            "Thma Puok",
            "Kouk Kakthen",
            "Treas"
        ]
    },
    {
        "Order": 46,
        "Name": "Thma Puok",
        "Khmer": "ថ្មពួក",
        "Geocode": 10704,
        "number of Villages": 7,
        "District": "Thma Puok",
        "Province": "Banteay Meanchey ",
        "Latitude": 13.9402197,
        "Longitude": 103.0500972,
        "neighbors": [
            "Banteay Chhmar",
            "Beng",
            "Kumru",
            "Kouk Romiet",
            "Kouk Kakthen",
            "Phum Thmei"
        ]
    },
    {
        "Order": 47,
        "Name": "Kouk Kakthen",
        "Khmer": "គោកកឋិន",
        "Geocode": 10705,
        "number of Villages": 9,
        "District": "Thma Puok",
        "Province": "Banteay Meanchey ",
        "Latitude": 13.8762624,
        "Longitude": 103.1527738,
        "neighbors": [
            "Beng",
            "Thma Puok",
            "Ponley",
            "Phum Thmei",
            "Treas",
            "Phkoam",
            "Ta Phou"
        ]
    },
    {
        "Order": 48,
        "Name": "Kumru",
        "Khmer": "គំរូ",
        "Geocode": 10706,
        "number of Villages": 7,
        "District": "Thma Puok",
        "Province": "Banteay Meanchey ",
        "Latitude": 13.9640396,
        "Longitude": 103.0165643,
        "neighbors": [
            "Banteay Chhmar",
            "Kouk Romiet",
            "Thma Puok",
            "Phum Thmei"
        ]
    },
    {
        "Order": 49,
        "Name": "Phkoam",
        "Khmer": "ផ្គាំ",
        "Geocode": 10801,
        "number of Villages": 11,
        "District": "Svay Chek",
        "Province": "Banteay Meanchey ",
        "Latitude": 13.8218508,
        "Longitude": 103.1017464,
        "neighbors": [
            "Ponley",
            "Kouk Kakthen",
            "Ta Phou",
            "Sarongk"
        ]
    },
    {
        "Order": 50,
        "Name": "Sarongk",
        "Khmer": "សារង្គ",
        "Geocode": 10802,
        "number of Villages": 6,
        "District": "Svay Chek",
        "Province": "Banteay Meanchey ",
        "Latitude": 13.7578218,
        "Longitude": 103.1163117,
        "neighbors": [
            "Tean Kam",
            "Ponley",
            "Phkoam",
            "Ta Phou",
            "Bos Sbov"
        ]
    },
    {
        "Order": 51,
        "Name": "Sla Kram",
        "Khmer": "ស្លក្រាម",
        "Geocode": 10803,
        "number of Villages": 10,
        "District": "Svay Chek",
        "Province": "Banteay Meanchey ",
        "Latitude": 13.7740278,
        "Longitude": 102.8359183,
        "neighbors": [
            "Svay Chek",
            "Ou Beichoan",
            "Ta Phou",
            "Ta Baen",
            "Soengh",
            "Changha",
            "Mkak"
        ]
    },
    {
        "Order": 52,
        "Name": "Svay Chek",
        "Khmer": "ស្វាយចេក",
        "Geocode": 10804,
        "number of Villages": 12,
        "District": "Svay Chek",
        "Province": "Banteay Meanchey ",
        "Latitude": 13.8031404,
        "Longitude": 102.9579459,
        "neighbors": [
            "Kouk Romiet",
            "Treas",
            "Sla Kram",
            "Roluos",
            "Ta Baen"
        ]
    },
    {
        "Order": 53,
        "Name": "Ta Baen",
        "Khmer": "តាបែន",
        "Geocode": 10805,
        "number of Villages": 5,
        "District": "Svay Chek",
        "Province": "Banteay Meanchey ",
        "Latitude": 13.77173,
        "Longitude": 102.961502,
        "neighbors": [
            "Svay Chek",
            "Sla Kram",
            "Roluos",
            "Ta Phou"
        ]
    },
    {
        "Order": 54,
        "Name": "Ta Phou",
        "Khmer": "តាផូ",
        "Geocode": 10806,
        "number of Villages": 11,
        "District": "Svay Chek",
        "Province": "Banteay Meanchey ",
        "Latitude": 13.7701023,
        "Longitude": 103.0471782,
        "neighbors": [
            "Kouk Kakthen",
            "Treas",
            "Phkoam",
            "Sla Kram",
            "Roluos",
            "Sarongk",
            "Ta Baen",
            "Bos Sbov",
            "Mkak"
        ]
    },
    {
        "Order": 55,
        "Name": "Treas",
        "Khmer": "ទ្រាស",
        "Geocode": 10807,
        "number of Villages": 9,
        "District": "Svay Chek",
        "Province": "Banteay Meanchey ",
        "Latitude": 13.902529,
        "Longitude": 102.8883283,
        "neighbors": [
            "Kouk Romiet",
            "Kouk Kakthen",
            "Phum Thmei",
            "Svay Chek",
            "Roluos",
            "Ta Phou"
        ]
    },
    {
        "Order": 56,
        "Name": "Roluos",
        "Khmer": "រលួស",
        "Geocode": 10808,
        "number of Villages": 7,
        "District": "Svay Chek",
        "Province": "Banteay Meanchey ",
        "Latitude": 13.8027599,
        "Longitude": 102.9641967,
        "neighbors": [
            "Svay Chek",
            "Treas",
            "Ta Phou",
            "Ta Baen"
        ]
    },
    {
        "Order": 57,
        "Name": "Boeng Beng",
        "Khmer": "បឹងបេង",
        "Geocode": 10901,
        "number of Villages": 7,
        "District": "Malai",
        "Province": "Banteay Meanchey ",
        "Latitude": 13.5326592,
        "Longitude": 102.3529859,
        "neighbors": [
            "Malai",
            "Chrey Seima"
        ]
    },
    {
        "Order": 58,
        "Name": "Malai",
        "Khmer": "ម៉ាឡៃ",
        "Geocode": 10902,
        "number of Villages": 8,
        "District": "Malai",
        "Province": "Banteay Meanchey ",
        "Latitude": 13.5670345,
        "Longitude": 102.3649454,
        "neighbors": [
            "Ou Sralau",
            "Boeng Beng",
            "Chrey Seima"
        ]
    },
    {
        "Order": 59,
        "Name": "Ou Sampoar",
        "Khmer": "អូរសំព័រ",
        "Geocode": 10903,
        "number of Villages": 4,
        "District": "Malai",
        "Province": "Banteay Meanchey ",
        "Latitude": 13.5177191,
        "Longitude": 102.4953899,
        "neighbors": [
            "Ou Sralau",
            "Tuol Pongro",
            "Chrey Seima"
        ]
    },
    {
        "Order": 60,
        "Name": "Ou Sralau",
        "Khmer": "អូរស្រឡៅ",
        "Geocode": 10904,
        "number of Villages": 8,
        "District": "Malai",
        "Province": "Banteay Meanchey ",
        "Latitude": 13.5644018,
        "Longitude": 102.4058017,
        "neighbors": [
            "Malai",
            "Ou Sampoar",
            "Chrey Seima"
        ]
    },
    {
        "Order": 61,
        "Name": "Tuol Pongro",
        "Khmer": "ទួលពង្រ",
        "Geocode": 10905,
        "number of Villages": 12,
        "District": "Malai",
        "Province": "Banteay Meanchey ",
        "Latitude": 13.5665101,
        "Longitude": 102.5428808,
        "neighbors": [
            "Phsar Kandal",
            "Nimitt",
            "Ta Kong",
            "Ou Sampoar",
            "Soea",
            "Chrey Seima"
        ]
    },
    {
        "Order": 62,
        "Name": "Ta Kong",
        "Khmer": "តាគង់",
        "Geocode": 10906,
        "number of Villages": 6,
        "District": "Malai",
        "Province": "Banteay Meanchey ",
        "Latitude": 13.4863329,
        "Longitude": 102.7367395,
        "neighbors": [
            "Nimitt",
            "Tuol Pongro",
            "Kuttasat",
            "Samraong",
            "Chamnaom",
            "Soea"
        ]
    },
    {
        "Order": 63,
        "Name": "Nimitt",
        "Khmer": "និមិត្ដ",
        "Geocode": 11001,
        "number of Villages": 15,
        "District": "Poi Pet",
        "Province": "Banteay Meanchey ",
        "Latitude": 13.627371871872048,
        "Longitude": 102.67801464863979,
        "neighbors": [
            "Ou Beichoan",
            "Phsar Kandal",
            "Koub",
            "Tuol Pongro",
            "Kuttasat",
            "Ta Kong"
        ]
    },
    {
        "Order": 64,
        "Name": "Paoy Paet",
        "Khmer": "ប៉ោយប៉ែត",
        "Geocode": 11002,
        "number of Villages": 6,
        "District": "Poi Pet",
        "Province": "Banteay Meanchey ",
        "Latitude": 13.65699,
        "Longitude": 102.566046,
        "neighbors": [
            "Phsar Kandal"
        ]
    },
    {
        "Order": 65,
        "Name": "Phsar Kandal",
        "Khmer": "ផ្សារកណ្តាល",
        "Geocode": 11003,
        "number of Villages": 5,
        "District": "Poi Pet",
        "Province": "Banteay Meanchey ",
        "Latitude": 13.642661564298061,
        "Longitude": 102.59271981289378,
        "neighbors": [
            "Ou Beichoan",
            "Nimitt",
            "Tuol Pongro",
            "Paoy Paet"
        ]
    },
    {
        "Order": 66,
        "Name": "Ou Chrov",
        "Khmer": "អូរជ្រៅ",
        "Geocode": 11004,
        "number of Villages": 7,
        "District": "Poi Pet",
        "Province": "Banteay Meanchey ",
        "Latitude": 13.6087612,
        "Longitude": 102.7681066,
        "neighbors": []
    },
    {
        "Order": 67,
        "Name": "Ou Reusey",
        "Khmer": "អូរឫស្សី",
        "Geocode": 11005,
        "number of Villages": 5,
        "District": "Poi Pet",
        "Province": "Banteay Meanchey ",
        "Latitude": 13.671151478410879,
        "Longitude": 102.61669649697204,
        "neighbors": []
    },
    {
        "Order": 68,
        "Name": "Kantueu Muoy",
        "Khmer": "កន្ទឺ ១",
        "Geocode": 20101,
        "number of Villages": 7,
        "District": "Banan",
        "Province": "Battambang ",
        "Latitude": 12.899234,
        "Longitude": 103.1514477,
        "neighbors": [
            "Reang Kesei",
            "Bay Damram",
            "Kantueu Pir",
            "Chaeng Mean Chey",
            "Thipakdei",
            "Doun Ba"
        ]
    },
    {
        "Order": 69,
        "Name": "Kantueu Pir",
        "Khmer": "កន្ទឺ ២",
        "Geocode": 20102,
        "number of Villages": 7,
        "District": "Banan",
        "Province": "Battambang ",
        "Latitude": 12.951753,
        "Longitude": 103.1454045,
        "neighbors": [
            "Snoeng",
            "Chheu Teal",
            "Bay Damram",
            "Kantueu Muoy",
            "Chaeng Mean Chey"
        ]
    },
    {
        "Order": 70,
        "Name": "Bay Damram",
        "Khmer": "បាយដំរាំ",
        "Geocode": 20103,
        "number of Villages": 8,
        "District": "Banan",
        "Province": "Battambang ",
        "Latitude": 12.9623155,
        "Longitude": 103.1855702,
        "neighbors": [
            "Vaot Ta Muem",
            "Chheu Teal",
            "Reang Kesei",
            "Kantueu Pir",
            "Kantueu Muoy"
        ]
    },
    {
        "Order": 71,
        "Name": "Chheu Teal",
        "Khmer": "ឈើទាល",
        "Geocode": 20104,
        "number of Villages": 15,
        "District": "Banan",
        "Province": "Battambang ",
        "Latitude": 12.990656,
        "Longitude": 103.1558463,
        "neighbors": [
            "wat Kor",
            "Vaot Ta Muem",
            "Snoeng",
            "Phnum Sampov",
            "Bay Damram",
            "Kantueu Pir"
        ]
    },
    {
        "Order": 72,
        "Name": "Chaeng Mean Chey",
        "Khmer": "ចែងមានជ័យ",
        "Geocode": 20105,
        "number of Villages": 8,
        "District": "Banan",
        "Province": "Battambang ",
        "Latitude": 12.8523909,
        "Longitude": 103.0761824,
        "neighbors": [
            "Snoeng",
            "Kantueu Pir",
            "Kantueu Muoy",
            "Andaeuk Haeb",
            "Doun Ba"
        ]
    },
    {
        "Order": 73,
        "Name": "Phnum Sampov",
        "Khmer": "ភ្នំសំពៅ",
        "Geocode": 20106,
        "number of Villages": 10,
        "District": "Banan",
        "Province": "Battambang ",
        "Latitude": 13.0208983,
        "Longitude": 103.084689,
        "neighbors": [
            "wat Kor",
            "Ta Kream",
            "Snoeng",
            "OMal",
            "Chheu Teal"
        ]
    },
    {
        "Order": 74,
        "Name": "Snoeng",
        "Khmer": "ស្នឹង",
        "Geocode": 20107,
        "number of Villages": 11,
        "District": "Banan",
        "Province": "Battambang ",
        "Latitude": 12.9687322,
        "Longitude": 103.0510142,
        "neighbors": [
            "Ta Kream",
            "Reaksmei Songha",
            "Phnum Sampov",
            "Chheu Teal",
            "Kantueu Pir",
            "Chaeng Mean Chey",
            "Andaeuk Haeb",
            "Sdau"
        ]
    },
    {
        "Order": 75,
        "Name": "Ta Kream",
        "Khmer": "តាគ្រាម",
        "Geocode": 20108,
        "number of Villages": 11,
        "District": "Banan",
        "Province": "Battambang ",
        "Latitude": 13.0660231,
        "Longitude": 103.0601805,
        "neighbors": [
            "Khnach Romeas",
            "Kdol Ta Haen",
            "Anlong Run",
            "Chrey",
            "Reaksmei Songha",
            "Snoeng",
            "OMal",
            "Phnum Sampov",
            "Khlaeng Meas"
        ]
    },
    {
        "Order": 76,
        "Name": "Ta Pung",
        "Khmer": "តាពូង",
        "Geocode": 20201,
        "number of Villages": 7,
        "District": "Thma Koul",
        "Province": "Battambang ",
        "Latitude": 13.2507325,
        "Longitude": 103.1620072,
        "neighbors": [
            "Prey Chas",
            "Ta Meun",
            "Kouk Khmum",
            "Peam Aek",
            "Preaek Norint",
            "Ou Ta Ki"
        ]
    },
    {
        "Order": 77,
        "Name": "Ta Meun",
        "Khmer": "តាម៉ឺន",
        "Geocode": 20202,
        "number of Villages": 10,
        "District": "Thma Koul",
        "Province": "Battambang ",
        "Latitude": 13.2780966,
        "Longitude": 103.0897631,
        "neighbors": [
            "Chrouy Sdau",
            "Prey Chas",
            "Ta Pung",
            "Kouk Khmum"
        ]
    },
    {
        "Order": 78,
        "Name": "Ou Ta Ki",
        "Khmer": "អូរតាគី",
        "Geocode": 20203,
        "number of Villages": 8,
        "District": "Thma Koul",
        "Province": "Battambang ",
        "Latitude": 13.1734379,
        "Longitude": 103.1120098,
        "neighbors": [
            "Ta Pung",
            "Kouk Khmum",
            "Peam Aek",
            "Anlong Run",
            "Kdol Doun Teav",
            "Chrey",
            "Sla Ket"
        ]
    },
    {
        "Order": 79,
        "Name": "Chrey",
        "Khmer": "ជ្រៃ",
        "Geocode": 20204,
        "number of Villages": 10,
        "District": "Thma Koul",
        "Province": "Battambang ",
        "Latitude": 13.12062227340389,
        "Longitude": 103.09063962017774,
        "neighbors": [
            "Ou Char",
            "Ou Ta Ki",
            "Anlong Run",
            "Sla Ket",
            "Ta Kream",
            "Chomkar Somraong",
            "OMal"
        ]
    },
    {
        "Order": 80,
        "Name": "Anlong Run",
        "Khmer": "អន្លង់រុន",
        "Geocode": 20205,
        "number of Villages": 5,
        "District": "Thma Koul",
        "Province": "Battambang ",
        "Latitude": 13.1669918,
        "Longitude": 103.0247894,
        "neighbors": [
            "Rung Chrey",
            "Khnach Romeas",
            "Bansay Traeng",
            "Kouk Khmum",
            "Ou Ta Ki",
            "Kdol Ta Haen",
            "Chrey",
            "Ta Kream",
            "Khlaeng Meas"
        ]
    },
    {
        "Order": 81,
        "Name": "Chrouy Sdau",
        "Khmer": "ជ្រោយស្ដៅ",
        "Geocode": 20206,
        "number of Villages": 4,
        "District": "Thma Koul",
        "Province": "Battambang ",
        "Latitude": 13.3405932,
        "Longitude": 103.1047283,
        "neighbors": [
            "Phnum Lieb",
            "Sambuor",
            "Rung Chrey",
            "Boeng Pring",
            "Prey Chas",
            "Ta Meun",
            "Bansay Traeng",
            "Kouk Khmum"
        ]
    },
    {
        "Order": 82,
        "Name": "Boeng Pring",
        "Khmer": "បឹងព្រីង",
        "Geocode": 20207,
        "number of Villages": 4,
        "District": "Thma Koul",
        "Province": "Battambang ",
        "Latitude": 13.3688712,
        "Longitude": 103.0333592,
        "neighbors": [
            "Soea",
            "Sambuor",
            "Rung Chrey",
            "Phnum Touch",
            "Chrouy Sdau",
            "Lvea"
        ]
    },
    {
        "Order": 83,
        "Name": "Kouk Khmum",
        "Khmer": "គោកឃ្មុំ",
        "Geocode": 20208,
        "number of Villages": 8,
        "District": "Thma Koul",
        "Province": "Battambang ",
        "Latitude": 13.267789,
        "Longitude": 103.0699444,
        "neighbors": [
            "Chrouy Sdau",
            "Ta Meun",
            "Ta Pung",
            "Bansay Traeng",
            "Ou Ta Ki",
            "Anlong Run"
        ]
    },
    {
        "Order": 84,
        "Name": "Bansay Traeng",
        "Khmer": "បន្សាយត្រែង",
        "Geocode": 20209,
        "number of Villages": 8,
        "District": "Thma Koul",
        "Province": "Battambang ",
        "Latitude": 13.2649326,
        "Longitude": 103.0248129,
        "neighbors": [
            "Rung Chrey",
            "Chrouy Sdau",
            "Kouk Khmum",
            "Anlong Run"
        ]
    },
    {
        "Order": 85,
        "Name": "Rung Chrey",
        "Khmer": "រូងជ្រៃ",
        "Geocode": 20210,
        "number of Villages": 7,
        "District": "Thma Koul",
        "Province": "Battambang ",
        "Latitude": 13.2619066,
        "Longitude": 102.9874639,
        "neighbors": [
            "Boeng Pring",
            "Chrouy Sdau",
            "Lvea",
            "Khnach Romeas",
            "Bansay Traeng",
            "Anlong Run"
        ]
    },
    {
        "Order": 86,
        "Name": "Tuol Ta Ek",
        "Khmer": "ទួលតាឯក",
        "Geocode": 20301,
        "number of Villages": 5,
        "District": "Battambang",
        "Province": "Battambang ",
        "Latitude": 13.0960249,
        "Longitude": 103.1869178,
        "neighbors": [
            "Ou Char",
            "wat Kor",
            "Svay Por",
            "OMal"
        ]
    },
    {
        "Order": 87,
        "Name": "Prek Preah Sdach",
        "Khmer": "ព្រែកព្រះស្ដេច",
        "Geocode": 20302,
        "number of Villages": 8,
        "District": "Battambang",
        "Province": "Battambang ",
        "Latitude": 13.0880979,
        "Longitude": 103.2088323,
        "neighbors": [
            "Rottanak",
            "wat Kor",
            "Svay Por",
            "Anlong Vil",
            "Ou Dambang Pir",
            "Ou Dambang Muoy"
        ]
    },
    {
        "Order": 88,
        "Name": "Rottanak",
        "Khmer": "រតនៈ",
        "Geocode": 20303,
        "number of Villages": 8,
        "District": "Battambang",
        "Province": "Battambang ",
        "Latitude": 13.0980339,
        "Longitude": 103.2075349,
        "neighbors": [
            "Sla Ket",
            "Chomkar Somraong",
            "Norea",
            "Svay Por",
            "Anlong Vil",
            "Prek Preah Sdach"
        ]
    },
    {
        "Order": 89,
        "Name": "Chomkar Somraong",
        "Khmer": "ចំការសំរោង",
        "Geocode": 20304,
        "number of Villages": 5,
        "District": "Battambang",
        "Province": "Battambang ",
        "Latitude": 13.1128482,
        "Longitude": 103.1994056,
        "neighbors": [
            "Ou Char",
            "Rottanak",
            "Chrey",
            "Sla Ket",
            "Svay Por"
        ]
    },
    {
        "Order": 90,
        "Name": "Sla Ket",
        "Khmer": "ស្លាកែត",
        "Geocode": 20305,
        "number of Villages": 3,
        "District": "Battambang",
        "Province": "Battambang ",
        "Latitude": 13.1169787,
        "Longitude": 103.2001046,
        "neighbors": [
            "Rottanak",
            "Ou Ta Ki",
            "Kdol Doun Teav",
            "Samraong Knong",
            "Chrey",
            "Chomkar Somraong",
            "Norea"
        ]
    },
    {
        "Order": 91,
        "Name": "Kdol Doun Teav",
        "Khmer": "ក្ដុលដូនទាវ",
        "Geocode": 20306,
        "number of Villages": 7,
        "District": "Battambang",
        "Province": "Battambang ",
        "Latitude": 13.139980183980388,
        "Longitude": 103.20303288776891,
        "neighbors": [
            "Peam Aek",
            "Preaek Norint",
            "Ou Ta Ki",
            "Preaek Khpob",
            "Samraong Knong",
            "Sla Ket"
        ]
    },
    {
        "Order": 92,
        "Name": "OMal",
        "Khmer": "អូរម៉ាល់",
        "Geocode": 20307,
        "number of Villages": 10,
        "District": "Battambang",
        "Province": "Battambang ",
        "Latitude": 13.078903,
        "Longitude": 103.126211,
        "neighbors": [
            "Ou Char",
            "wat Kor",
            "Chrey",
            "Ta Kream",
            "Tuol Ta Ek",
            "Phnum Sampov"
        ]
    },
    {
        "Order": 93,
        "Name": "wat Kor",
        "Khmer": "វត្ដគរ",
        "Geocode": 20308,
        "number of Villages": 6,
        "District": "Battambang",
        "Province": "Battambang ",
        "Latitude": 13.075535338774802,
        "Longitude": 103.20173787211706,
        "neighbors": [
            "Vaot Ta Muem",
            "Svay Por",
            "Tuol Ta Ek",
            "OMal",
            "Prek Preah Sdach",
            "Ou Dambang Muoy",
            "Phnum Sampov",
            "Chheu Teal"
        ]
    },
    {
        "Order": 94,
        "Name": "Ou Char",
        "Khmer": "អូរចារ",
        "Geocode": 20309,
        "number of Villages": 6,
        "District": "Battambang",
        "Province": "Battambang ",
        "Latitude": 13.1042093,
        "Longitude": 103.1682675,
        "neighbors": [
            "Chrey",
            "Chomkar Somraong",
            "Svay Por",
            "Tuol Ta Ek",
            "OMal"
        ]
    },
    {
        "Order": 95,
        "Name": "Svay Por",
        "Khmer": "ស្វាយប៉ោ",
        "Geocode": 20310,
        "number of Villages": 4,
        "District": "Battambang",
        "Province": "Battambang ",
        "Latitude": 13.091692,
        "Longitude": 103.1990758,
        "neighbors": [
            "Ou Char",
            "Rottanak",
            "wat Kor",
            "Chomkar Somraong",
            "Tuol Ta Ek",
            "Prek Preah Sdach",
            "Ou Dambang Muoy"
        ]
    },
    {
        "Order": 96,
        "Name": "Bavel",
        "Khmer": "បវេល",
        "Geocode": 20401,
        "number of Villages": 12,
        "District": "Bavel",
        "Province": "Battambang ",
        "Latitude": 13.2545948,
        "Longitude": 102.8802479,
        "neighbors": [
            "Ampil Pram Daeum",
            "Prey Khpos",
            "Lvea",
            "Khnach Romeas",
            "Kdol Ta Haen"
        ]
    },
    {
        "Order": 97,
        "Name": "Khnach Romeas",
        "Khmer": "ខ្នាចរមាស",
        "Geocode": 20402,
        "number of Villages": 8,
        "District": "Bavel",
        "Province": "Battambang ",
        "Latitude": 13.2677301,
        "Longitude": 102.9550673,
        "neighbors": [
            "Rung Chrey",
            "Lvea",
            "Bavel",
            "Kdol Ta Haen",
            "Anlong Run",
            "Ta Kream",
            "Khlaeng Meas"
        ]
    },
    {
        "Order": 98,
        "Name": "Lvea",
        "Khmer": "ល្វា",
        "Geocode": 20403,
        "number of Villages": 12,
        "District": "Bavel",
        "Province": "Battambang ",
        "Latitude": 13.0286971,
        "Longitude": 102.989615,
        "neighbors": [
            "Soea",
            "Rung Chrey",
            "Prey Khpos",
            "Boeng Pring",
            "Khnach Romeas",
            "Bavel"
        ]
    },
    {
        "Order": 99,
        "Name": "Prey Khpos",
        "Khmer": "ព្រៃខ្ពស់",
        "Geocode": 20404,
        "number of Villages": 10,
        "District": "Bavel",
        "Province": "Battambang ",
        "Latitude": 13.3448599,
        "Longitude": 102.9048402,
        "neighbors": [
            "Soea",
            "Lvea",
            "Bavel",
            "Boeung Pram"
        ]
    },
    {
        "Order": 100,
        "Name": "Ampil Pram Daeum",
        "Khmer": "អំពិលប្រាំដើម",
        "Geocode": 20405,
        "number of Villages": 15,
        "District": "Bavel",
        "Province": "Battambang ",
        "Latitude": 13.2589055,
        "Longitude": 102.7723636,
        "neighbors": [
            "Bavel",
            "Kdol Ta Haen",
            "Boeung Pram"
        ]
    },
    {
        "Order": 101,
        "Name": "Kdol Ta Haen",
        "Khmer": "ក្ដុលតាហែន",
        "Geocode": 20406,
        "number of Villages": 15,
        "District": "Bavel",
        "Province": "Battambang ",
        "Latitude": 13.187564804394547,
        "Longitude": 102.81043534334151,
        "neighbors": [
            "Ampil Pram Daeum",
            "Khnach Romeas",
            "Bavel",
            "Ta Krei",
            "Anlong Run",
            "Ta Kream",
            "Pech Chenda",
            "Khlaeng Meas"
        ]
    },
    {
        "Order": 102,
        "Name": "Khlaeng Meas",
        "Khmer": "ឃ្លាំងមាស",
        "Geocode": 20407,
        "number of Villages": 13,
        "District": "Bavel",
        "Province": "Battambang ",
        "Latitude": 13.127533,
        "Longitude": 102.7951495,
        "neighbors": [
            "Khnach Romeas",
            "Kdol Ta Haen",
            "Ta Krei",
            "Anlong Run",
            "Ta Kream",
            "Reaksmei Songha"
        ]
    },
    {
        "Order": 103,
        "Name": "Boeung Pram",
        "Khmer": "បឹងប្រាំ",
        "Geocode": 20408,
        "number of Villages": 9,
        "District": "Bavel",
        "Province": "Battambang ",
        "Latitude": 13.3397617,
        "Longitude": 102.726925,
        "neighbors": [
            "Ampil Pram Daeum",
            "Soea",
            "Prey Khpos",
            "Sampov Lun"
        ]
    },
    {
        "Order": 104,
        "Name": "Bouvel",
        "Khmer": "បួវិល",
        "Geocode": 20409,
        "number of Villages": 9,
        "District": "Bavel",
        "Province": "Battambang ",
        "Latitude": 13.2572249,
        "Longitude": 102.8592352,
        "neighbors": []
    },
    {
        "Order": 105,
        "Name": "Preaek Norint",
        "Khmer": "ព្រែកនរិន្ទ",
        "Geocode": 20501,
        "number of Villages": 10,
        "District": "Aek Phnum",
        "Province": "Battambang ",
        "Latitude": 13.1589329,
        "Longitude": 103.2276569,
        "neighbors": [
            "Prey Chas",
            "Ta Pung",
            "Peam Aek",
            "Preaek Luong",
            "Preaek Khpob",
            "Kdol Doun Teav"
        ]
    },
    {
        "Order": 106,
        "Name": "Samraong Knong",
        "Khmer": "សំរោងក្នុង",
        "Geocode": 20502,
        "number of Villages": 5,
        "District": "Aek Phnum",
        "Province": "Battambang ",
        "Latitude": 13.1276878,
        "Longitude": 103.2206643,
        "neighbors": [
            "Ta Pon",
            "Preaek Khpob",
            "Kdol Doun Teav",
            "Sla Ket",
            "Norea"
        ]
    },
    {
        "Order": 107,
        "Name": "Preaek Khpob",
        "Khmer": "ព្រែកខ្ពប",
        "Geocode": 20503,
        "number of Villages": 5,
        "District": "Aek Phnum",
        "Province": "Battambang ",
        "Latitude": 13.1483404,
        "Longitude": 103.2468725,
        "neighbors": [
            "Preaek Norint",
            "Ta Pon",
            "Preaek Luong",
            "Kdol Doun Teav",
            "Samraong Knong"
        ]
    },
    {
        "Order": 108,
        "Name": "Preaek Luong",
        "Khmer": "ព្រែកហ្លួង",
        "Geocode": 20504,
        "number of Villages": 7,
        "District": "Aek Phnum",
        "Province": "Battambang ",
        "Latitude": 13.2005347,
        "Longitude": 103.3181062,
        "neighbors": [
            "Prey Chas",
            "Preaek Norint",
            "Ta Pon",
            "Preaek Khpob"
        ]
    },
    {
        "Order": 109,
        "Name": "Peam Aek",
        "Khmer": "ពាមឯក",
        "Geocode": 20505,
        "number of Villages": 8,
        "District": "Aek Phnum",
        "Province": "Battambang ",
        "Latitude": 13.1631056,
        "Longitude": 103.1890131,
        "neighbors": [
            "Prey Chas",
            "Ta Pung",
            "Preaek Norint",
            "Ou Ta Ki",
            "Kdol Doun Teav"
        ]
    },
    {
        "Order": 110,
        "Name": "Prey Chas",
        "Khmer": "ព្រៃចាស់",
        "Geocode": 20506,
        "number of Villages": 5,
        "District": "Aek Phnum",
        "Province": "Battambang ",
        "Latitude": 13.3107815,
        "Longitude": 103.4003178,
        "neighbors": [
            "Phnum Lieb",
            "Sambuor",
            "Prasat",
            "Sambuor",
            "Pou Treay",
            "Chrouy Sdau",
            "Ta Meun",
            "Kaoh Chiveang",
            "Ta Pung",
            "Peam Aek",
            "Preaek Norint",
            "Ta Pon",
            "Preaek Luong"
        ]
    },
    {
        "Order": 111,
        "Name": "Kaoh Chiveang",
        "Khmer": "កោះជីវាំង",
        "Geocode": 20507,
        "number of Villages": 5,
        "District": "Aek Phnum",
        "Province": "Battambang ",
        "Latitude": 13.2225089,
        "Longitude": 103.6081964,
        "neighbors": [
            "Lvea",
            "Mukh Paen",
            "Puok",
            "Pou Treay",
            "Samraong Yea",
            "Kaev Poar",
            "Prey Chas",
            "Ta Pon",
            "Roka",
            "Kampong Preah"
        ]
    },
    {
        "Order": 112,
        "Name": "Moung",
        "Khmer": "មោង",
        "Geocode": 20601,
        "number of Villages": 15,
        "District": "Moung Ruessei",
        "Province": "Battambang ",
        "Latitude": 12.7818303,
        "Longitude": 103.3703221,
        "neighbors": [
            "Kakaoh",
            "Kear",
            "Hab",
            "Preah Phos",
            "Robas Mongkol"
        ]
    },
    {
        "Order": 113,
        "Name": "Kear",
        "Khmer": "គារ",
        "Geocode": 20602,
        "number of Villages": 12,
        "District": "Moung Ruessei",
        "Province": "Battambang ",
        "Latitude": 12.7004836,
        "Longitude": 103.4627375,
        "neighbors": [
            "Moung",
            "Chrey",
            "Ta Loas",
            "Kakaoh",
            "Prey Svay",
            "Robas Mongkol",
            "Preaek Chik",
            "Sdok Pravoek",
            "Prey Tralach"
        ]
    },
    {
        "Order": 114,
        "Name": "Prey Svay",
        "Khmer": "ព្រៃស្វាយ",
        "Geocode": 20603,
        "number of Villages": 9,
        "District": "Moung Ruessei",
        "Province": "Battambang ",
        "Latitude": 12.7133149,
        "Longitude": 103.5475094,
        "neighbors": [
            "Chrey",
            "Kear",
            "Ruessei Krang",
            "Sdok Pravoek",
            "Prey Tralach"
        ]
    },
    {
        "Order": 115,
        "Name": "Ruessei Krang",
        "Khmer": "ឫស្សីក្រាំង",
        "Geocode": 20604,
        "number of Villages": 11,
        "District": "Moung Ruessei",
        "Province": "Battambang ",
        "Latitude": 12.700295,
        "Longitude": 103.6043616,
        "neighbors": [
            "Chrey",
            "Ou Ta Paong",
            "Prey Svay",
            "Svay Doun Kaev",
            "Rumlech"
        ]
    },
    {
        "Order": 116,
        "Name": "Chrey",
        "Khmer": "ជ្រៃ",
        "Geocode": 20605,
        "number of Villages": 8,
        "District": "Moung Ruessei",
        "Province": "Battambang ",
        "Latitude": 12.788034019762714,
        "Longitude": 103.49038207317528,
        "neighbors": [
            "Kampong Preah",
            "Kampong Prieng",
            "Ou Ta Paong",
            "Ta Loas",
            "Kear",
            "Ruessei Krang",
            "Prey Svay"
        ]
    },
    {
        "Order": 117,
        "Name": "Ta Loas",
        "Khmer": "តាលាស់",
        "Geocode": 20606,
        "number of Villages": 10,
        "District": "Moung Ruessei",
        "Province": "Battambang ",
        "Latitude": 12.805141,
        "Longitude": 103.4604668,
        "neighbors": [
            "Chrey",
            "Kampong Prieng",
            "Prey Touch",
            "Kakaoh",
            "Kear"
        ]
    },
    {
        "Order": 118,
        "Name": "Kakaoh",
        "Khmer": "កកោះ",
        "Geocode": 20607,
        "number of Villages": 8,
        "District": "Moung Ruessei",
        "Province": "Battambang ",
        "Latitude": 12.841635,
        "Longitude": 103.3985451,
        "neighbors": [
            "Moung",
            "Ta Loas",
            "Prey Touch",
            "Kear",
            "Hab"
        ]
    },
    {
        "Order": 119,
        "Name": "Prey Touch",
        "Khmer": "ព្រៃតូច",
        "Geocode": 20608,
        "number of Villages": 8,
        "District": "Moung Ruessei",
        "Province": "Battambang ",
        "Latitude": 12.8991423,
        "Longitude": 103.3731694,
        "neighbors": [
            "Kampong Prieng",
            "Ta Loas",
            "Kakaoh",
            "Thipakdei",
            "Hab"
        ]
    },
    {
        "Order": 120,
        "Name": "Robas Mongkol",
        "Khmer": "របស់មង្គល",
        "Geocode": 20609,
        "number of Villages": 12,
        "District": "Moung Ruessei",
        "Province": "Battambang ",
        "Latitude": 12.7492808,
        "Longitude": 103.3852526,
        "neighbors": [
            "Moung",
            "Kear",
            "Preah Phos"
        ]
    },
    {
        "Order": 121,
        "Name": "Sdau",
        "Khmer": "ស្ដៅ",
        "Geocode": 20701,
        "number of Villages": 8,
        "District": "Rotonak Mondol",
        "Province": "Battambang ",
        "Latitude": 12.894554078657972,
        "Longitude": 102.97603707996923,
        "neighbors": [
            "Reaksmei Songha",
            "Snoeng",
            "Traeng",
            "Andaeuk Haeb"
        ]
    },
    {
        "Order": 122,
        "Name": "Andaeuk Haeb",
        "Khmer": "អណ្ដើកហែប",
        "Geocode": 20702,
        "number of Villages": 7,
        "District": "Rotonak Mondol",
        "Province": "Battambang ",
        "Latitude": 12.8291887,
        "Longitude": 103.0087115,
        "neighbors": [
            "Snoeng",
            "Traeng",
            "Chaeng Mean Chey",
            "Doun Ba",
            "Phlov Meas",
            "Ou Samril",
            "Chhnal Moan",
            "Sdau"
        ]
    },
    {
        "Order": 123,
        "Name": "Phlov Meas",
        "Khmer": "ផ្លូវមាស",
        "Geocode": 20703,
        "number of Villages": 7,
        "District": "Rotonak Mondol",
        "Province": "Battambang ",
        "Latitude": 12.7989669,
        "Longitude": 102.8908358,
        "neighbors": [
            "Traeng",
            "Andaeuk Haeb",
            "Ou Ta Vau",
            "Mean Chey",
            "Ou Samril"
        ]
    },
    {
        "Order": 124,
        "Name": "Traeng",
        "Khmer": "ត្រែង",
        "Geocode": 20704,
        "number of Villages": 8,
        "District": "Rotonak Mondol",
        "Province": "Battambang ",
        "Latitude": 12.8420235,
        "Longitude": 102.9155854,
        "neighbors": [
            "Pailin",
            "Reaksmei Songha",
            "Ou Andoung",
            "Stueng Kach",
            "Andaeuk Haeb",
            "Ou Ta Vau",
            "Phlov Meas",
            "Sdau"
        ]
    },
    {
        "Order": 125,
        "Name": "Reaksmei Songha",
        "Khmer": "រស្មីសង្ហារ",
        "Geocode": 20705,
        "number of Villages": 8,
        "District": "Rotonak Mondol",
        "Province": "Battambang ",
        "Latitude": 13.0055759,
        "Longitude": 102.783254,
        "neighbors": [
            "Ta Krei",
            "Ta Kream",
            "Stueng Trang",
            "Snoeng",
            "Ou Andoung",
            "Traeng",
            "Sdau",
            "Khlaeng Meas"
        ]
    },
    {
        "Order": 126,
        "Name": "Anlong Vil",
        "Khmer": "អន្លង់វិល",
        "Geocode": 20801,
        "number of Villages": 10,
        "District": "Sangkae",
        "Province": "Battambang ",
        "Latitude": 13.0831799,
        "Longitude": 103.2338863,
        "neighbors": [
            "Rottanak",
            "Roka",
            "Kampong Preah",
            "Norea",
            "Prek Preah Sdach",
            "Ou Dambang Pir"
        ]
    },
    {
        "Order": 127,
        "Name": "Norea",
        "Khmer": "នរា",
        "Geocode": 20802,
        "number of Villages": 4,
        "District": "Sangkae",
        "Province": "Battambang ",
        "Latitude": 13.112793,
        "Longitude": 103.221899,
        "neighbors": [
            "Rottanak",
            "Ta Pon",
            "Roka",
            "Samraong Knong",
            "Sla Ket",
            "Anlong Vil"
        ]
    },
    {
        "Order": 128,
        "Name": "Ta Pon",
        "Khmer": "តាប៉ុន",
        "Geocode": 20803,
        "number of Villages": 5,
        "District": "Sangkae",
        "Province": "Battambang ",
        "Latitude": 13.1588841,
        "Longitude": 103.3674221,
        "neighbors": [
            "Prey Chas",
            "Kaoh Chiveang",
            "Preaek Luong",
            "Preaek Khpob",
            "Roka",
            "Samraong Knong",
            "Norea"
        ]
    },
    {
        "Order": 129,
        "Name": "Roka",
        "Khmer": "រកា",
        "Geocode": 20804,
        "number of Villages": 6,
        "District": "Sangkae",
        "Province": "Battambang ",
        "Latitude": 13.0988745,
        "Longitude": 103.2943735,
        "neighbors": [
            "Kaoh Chiveang",
            "Ta Pon",
            "Kampong Preah",
            "Norea",
            "Anlong Vil"
        ]
    },
    {
        "Order": 130,
        "Name": "Kampong Preah",
        "Khmer": "កំពង់ព្រះ",
        "Geocode": 20805,
        "number of Villages": 6,
        "District": "Sangkae",
        "Province": "Battambang ",
        "Latitude": 13.0222201,
        "Longitude": 103.3079167,
        "neighbors": [
            "Kaoh Chiveang",
            "Roka",
            "Anlong Vil",
            "Chrey",
            "Ou Dambang Pir",
            "Kampong Prieng",
            "Reang Kesei"
        ]
    },
    {
        "Order": 131,
        "Name": "Kampong Prieng",
        "Khmer": "កំពង់ព្រៀង",
        "Geocode": 20806,
        "number of Villages": 6,
        "District": "Sangkae",
        "Province": "Battambang ",
        "Latitude": 12.9525102,
        "Longitude": 103.3443885,
        "neighbors": [
            "Kampong Preah",
            "Chrey",
            "Reang Kesei",
            "Ta Loas",
            "Prey Touch",
            "Thipakdei"
        ]
    },
    {
        "Order": 132,
        "Name": "Reang Kesei",
        "Khmer": "រាំងកេសី",
        "Geocode": 20807,
        "number of Villages": 9,
        "District": "Sangkae",
        "Province": "Battambang ",
        "Latitude": 12.967065,
        "Longitude": 103.2576906,
        "neighbors": [
            "Kampong Preah",
            "Vaot Ta Muem",
            "Ou Dambang Pir",
            "Ou Dambang Muoy",
            "Kampong Prieng",
            "Bay Damram",
            "Kantueu Muoy",
            "Thipakdei"
        ]
    },
    {
        "Order": 133,
        "Name": "Ou Dambang Muoy",
        "Khmer": "អូរដំបង ១",
        "Geocode": 20808,
        "number of Villages": 6,
        "District": "Sangkae",
        "Province": "Battambang ",
        "Latitude": 13.0218557,
        "Longitude": 103.231151,
        "neighbors": [
            "wat Kor",
            "Vaot Ta Muem",
            "Svay Por",
            "Prek Preah Sdach",
            "Ou Dambang Pir",
            "Reang Kesei"
        ]
    },
    {
        "Order": 134,
        "Name": "Ou Dambang Pir",
        "Khmer": "អូរដំបង ២",
        "Geocode": 20809,
        "number of Villages": 6,
        "District": "Sangkae",
        "Province": "Battambang ",
        "Latitude": 13.0320789,
        "Longitude": 103.2649065,
        "neighbors": [
            "Kampong Preah",
            "Anlong Vil",
            "Prek Preah Sdach",
            "Ou Dambang Muoy",
            "Reang Kesei"
        ]
    },
    {
        "Order": 135,
        "Name": "Vaot Ta Muem",
        "Khmer": "វត្ដតាមិម",
        "Geocode": 20810,
        "number of Villages": 6,
        "District": "Sangkae",
        "Province": "Battambang ",
        "Latitude": 13.009133989093996,
        "Longitude": 103.20787941133734,
        "neighbors": [
            "wat Kor",
            "Ou Dambang Muoy",
            "Chheu Teal",
            "Reang Kesei",
            "Bay Damram"
        ]
    },
    {
        "Order": 136,
        "Name": "Ta Taok",
        "Khmer": "តាតោក",
        "Geocode": 20901,
        "number of Villages": 9,
        "District": "Samlout",
        "Province": "Battambang ",
        "Latitude": 12.4777454,
        "Longitude": 102.8226913,
        "neighbors": [
            "Kampong Lpov",
            "Anlong Reab",
            "Thma Da"
        ]
    },
    {
        "Order": 137,
        "Name": "Kampong Lpov",
        "Khmer": "កំពង់ល្ពៅ",
        "Geocode": 20902,
        "number of Villages": 9,
        "District": "Samlout",
        "Province": "Battambang ",
        "Latitude": 12.5783804,
        "Longitude": 103.0060372,
        "neighbors": [
            "Chhnal Moan",
            "Ta Sanh",
            "Krapeu Pir",
            "Ta Taok",
            "Anlong Reab"
        ]
    },
    {
        "Order": 138,
        "Name": "Ou Samril",
        "Khmer": "អូរសំរិល",
        "Geocode": 20903,
        "number of Villages": 6,
        "District": "Samlout",
        "Province": "Battambang ",
        "Latitude": 12.7171626,
        "Longitude": 102.9631234,
        "neighbors": [
            "Andaeuk Haeb",
            "Phlov Meas",
            "Mean Chey",
            "Chhnal Moan",
            "Ta Sanh"
        ]
    },
    {
        "Order": 139,
        "Name": "Sung",
        "Khmer": "ស៊ុង",
        "Geocode": 20904,
        "number of Villages": 10,
        "District": "Samlout",
        "Province": "Battambang ",
        "Latitude": 12.5817407,
        "Longitude": 102.7771586,
        "neighbors": [
            "Mean Chey",
            "Samlout"
        ]
    },
    {
        "Order": 140,
        "Name": "Samlout",
        "Khmer": "សំឡូត",
        "Geocode": 20905,
        "number of Villages": 11,
        "District": "Samlout",
        "Province": "Battambang ",
        "Latitude": 12.6209854,
        "Longitude": 102.8601122,
        "neighbors": [
            "Sung"
        ]
    },
    {
        "Order": 141,
        "Name": "Mean Chey",
        "Khmer": "មានជ័យ",
        "Geocode": 20906,
        "number of Villages": 7,
        "District": "Samlout",
        "Province": "Battambang ",
        "Latitude": 12.7097921,
        "Longitude": 102.7491049,
        "neighbors": [
            "Pailin",
            "Tuol Lvea",
            "Bar Yakha",
            "Ou Ta Vau",
            "Phlov Meas",
            "Ou Samril",
            "Ta Sanh",
            "Sung"
        ]
    },
    {
        "Order": 142,
        "Name": "Ta Sanh",
        "Khmer": "តាសាញ",
        "Geocode": 20907,
        "number of Villages": 7,
        "District": "Samlout",
        "Province": "Battambang ",
        "Latitude": 12.6327347,
        "Longitude": 102.8629214,
        "neighbors": [
            "Mean Chey",
            "Ou Samril",
            "Chhnal Moan",
            "Kampong Lpov"
        ]
    },
    {
        "Order": 143,
        "Name": "Sampov Lun",
        "Khmer": "សំពៅលូន",
        "Geocode": 21001,
        "number of Villages": 4,
        "District": "Sampov Lun",
        "Province": "Battambang ",
        "Latitude": 13.4302578,
        "Longitude": 102.3721623,
        "neighbors": [
            "Bour",
            "Soea",
            "Boeung Pram",
            "Angkor Ban",
            "Ta Sda"
        ]
    },
    {
        "Order": 144,
        "Name": "Angkor Ban",
        "Khmer": "អង្គរបាន",
        "Geocode": 21002,
        "number of Villages": 5,
        "District": "Sampov Lun",
        "Province": "Battambang ",
        "Latitude": 13.3753145,
        "Longitude": 102.442493,
        "neighbors": [
            "Bour",
            "Sampov Lun"
        ]
    },
    {
        "Order": 145,
        "Name": "Ta Sda",
        "Khmer": "តាស្ដា",
        "Geocode": 21003,
        "number of Villages": 6,
        "District": "Sampov Lun",
        "Province": "Battambang ",
        "Latitude": 13.4198496,
        "Longitude": 102.5240666,
        "neighbors": [
            "Soea",
            "Santepheap",
            "Sampov Lun"
        ]
    },
    {
        "Order": 146,
        "Name": "Santepheap",
        "Khmer": "សន្ដិភាព",
        "Geocode": 21004,
        "number of Villages": 7,
        "District": "Sampov Lun",
        "Province": "Battambang ",
        "Latitude": 13.4326011,
        "Longitude": 102.3735458,
        "neighbors": [
            "Serei Mean Chey",
            "Ta Sda"
        ]
    },
    {
        "Order": 147,
        "Name": "Serei Mean Chey",
        "Khmer": "សេរីមានជ័យ",
        "Geocode": 21005,
        "number of Villages": 12,
        "District": "Sampov Lun",
        "Province": "Battambang ",
        "Latitude": 13.4590136,
        "Longitude": 102.4582048,
        "neighbors": [
            "Santepheap",
            "Chrey Seima"
        ]
    },
    {
        "Order": 148,
        "Name": "Chrey Seima",
        "Khmer": "ជ្រៃសីមា",
        "Geocode": 21006,
        "number of Villages": 8,
        "District": "Sampov Lun",
        "Province": "Battambang ",
        "Latitude": 13.4670597,
        "Longitude": 102.4859818,
        "neighbors": [
            "Serei Mean Chey",
            "Ou Sralau",
            "Tuol Pongro",
            "Malai",
            "Ou Sampoar",
            "Boeng Beng",
            "Soea"
        ]
    },
    {
        "Order": 149,
        "Name": "Phnum Proek",
        "Khmer": "ភ្នំព្រឹក",
        "Geocode": 21101,
        "number of Villages": 6,
        "District": "Phnum Proek",
        "Province": "Battambang ",
        "Latitude": 13.2801764,
        "Longitude": 102.4839212,
        "neighbors": [
            "Barang Thleak",
            "Ou Rumduol"
        ]
    },
    {
        "Order": 150,
        "Name": "Pech Chenda",
        "Khmer": "ពេជ្រចិន្ដា",
        "Geocode": 21102,
        "number of Villages": 9,
        "District": "Phnum Proek",
        "Province": "Battambang ",
        "Latitude": 13.2238766,
        "Longitude": 102.3907812,
        "neighbors": [
            "Kdol Ta Haen",
            "Ta Saen",
            "Ta Krei",
            "Ou Rumduol"
        ]
    },
    {
        "Order": 151,
        "Name": "Bour",
        "Khmer": "បួរ",
        "Geocode": 21103,
        "number of Villages": 9,
        "District": "Phnum Proek",
        "Province": "Battambang ",
        "Latitude": 13.2793702,
        "Longitude": 102.6187452,
        "neighbors": [
            "Barang Thleak",
            "Angkor Ban",
            "Sampov Lun"
        ]
    },
    {
        "Order": 152,
        "Name": "Barang Thleak",
        "Khmer": "បារាំងធ្លាក់",
        "Geocode": 21104,
        "number of Villages": 13,
        "District": "Phnum Proek",
        "Province": "Battambang ",
        "Latitude": 13.3373809,
        "Longitude": 102.4355821,
        "neighbors": [
            "Bour",
            "Phnum Proek"
        ]
    },
    {
        "Order": 153,
        "Name": "Ou Rumduol",
        "Khmer": "អូររំដួល",
        "Geocode": 21105,
        "number of Villages": 8,
        "District": "Phnum Proek",
        "Province": "Battambang ",
        "Latitude": 13.2849488,
        "Longitude": 102.6155818,
        "neighbors": [
            "Phnum Proek",
            "Pech Chenda"
        ]
    },
    {
        "Order": 154,
        "Name": "Kamrieng",
        "Khmer": "កំរៀង",
        "Geocode": 21201,
        "number of Villages": 6,
        "District": "Kamrieng",
        "Province": "Battambang ",
        "Latitude": 13.0923956,
        "Longitude": 102.446656,
        "neighbors": [
            "Ou Da",
            "Boeng Reang",
            "Stueng Trang",
            "Sala Krau"
        ]
    },
    {
        "Order": 155,
        "Name": "Boeng Reang",
        "Khmer": "បឹងរាំង",
        "Geocode": 21202,
        "number of Villages": 8,
        "District": "Kamrieng",
        "Province": "Battambang ",
        "Latitude": 13.083055,
        "Longitude": 102.4689068,
        "neighbors": [
            "Trang",
            "Ou Da",
            "Kamrieng"
        ]
    },
    {
        "Order": 156,
        "Name": "Ou Da",
        "Khmer": "អូរដា",
        "Geocode": 21203,
        "number of Villages": 10,
        "District": "Kamrieng",
        "Province": "Battambang ",
        "Latitude": 13.1133876,
        "Longitude": 102.5414148,
        "neighbors": [
            "Trang",
            "Ta Krei",
            "Boeng Reang",
            "Stueng Trang",
            "Kamrieng"
        ]
    },
    {
        "Order": 157,
        "Name": "Trang",
        "Khmer": "ត្រាង",
        "Geocode": 21204,
        "number of Villages": 9,
        "District": "Kamrieng",
        "Province": "Battambang ",
        "Latitude": 13.1082501,
        "Longitude": 102.4327899,
        "neighbors": [
            "Ta Saen",
            "Ta Krei",
            "Ou Da",
            "Boeng Reang"
        ]
    },
    {
        "Order": 158,
        "Name": "Ta Saen",
        "Khmer": "តាសែន",
        "Geocode": 21205,
        "number of Villages": 6,
        "District": "Kamrieng",
        "Province": "Battambang ",
        "Latitude": 13.1788291,
        "Longitude": 102.4724537,
        "neighbors": [
            "Trang",
            "Ta Krei",
            "Pech Chenda"
        ]
    },
    {
        "Order": 159,
        "Name": "Ta Krei",
        "Khmer": "តាក្រី",
        "Geocode": 21206,
        "number of Villages": 10,
        "District": "Kamrieng",
        "Province": "Battambang ",
        "Latitude": 13.1242686,
        "Longitude": 102.6567225,
        "neighbors": [
            "Trang",
            "Kdol Ta Haen",
            "Ta Saen",
            "Ou Da",
            "Stueng Trang",
            "Reaksmei Songha",
            "Pech Chenda",
            "Khlaeng Meas"
        ]
    },
    {
        "Order": 160,
        "Name": "Thipakdei",
        "Khmer": "ធិបតី",
        "Geocode": 21301,
        "number of Villages": 11,
        "District": "Koas Krala",
        "Province": "Battambang ",
        "Latitude": 12.8639161,
        "Longitude": 103.2849151,
        "neighbors": [
            "Kaos Krala",
            "Kampong Prieng",
            "Reang Kesei",
            "Prey Touch",
            "Kantueu Muoy",
            "Doun Ba",
            "Hab"
        ]
    },
    {
        "Order": 161,
        "Name": "Kaos Krala",
        "Khmer": "គាស់ក្រឡ",
        "Geocode": 21302,
        "number of Villages": 9,
        "District": "Koas Krala",
        "Province": "Battambang ",
        "Latitude": 12.7614042,
        "Longitude": 103.2605763,
        "neighbors": [
            "Thipakdei",
            "Doun Ba",
            "Hab",
            "Preah Phos",
            "Chhnal Moan"
        ]
    },
    {
        "Order": 162,
        "Name": "Hab",
        "Khmer": "ហប់",
        "Geocode": 21303,
        "number of Villages": 7,
        "District": "Koas Krala",
        "Province": "Battambang ",
        "Latitude": 12.7959285,
        "Longitude": 103.3000794,
        "neighbors": [
            "Moung",
            "Kaos Krala",
            "Prey Touch",
            "Kakaoh",
            "Thipakdei",
            "Preah Phos"
        ]
    },
    {
        "Order": 163,
        "Name": "Preah Phos",
        "Khmer": "ព្រះផុស",
        "Geocode": 21304,
        "number of Villages": 9,
        "District": "Koas Krala",
        "Province": "Battambang ",
        "Latitude": 12.6568435,
        "Longitude": 103.2579666,
        "neighbors": [
            "Moung",
            "Kaos Krala",
            "Hab",
            "Robas Mongkol",
            "Chhnal Moan",
            "Basak"
        ]
    },
    {
        "Order": 164,
        "Name": "Doun Ba",
        "Khmer": "ដូនបា",
        "Geocode": 21305,
        "number of Villages": 8,
        "District": "Koas Krala",
        "Province": "Battambang ",
        "Latitude": 12.7757525,
        "Longitude": 103.1435407,
        "neighbors": [
            "Kaos Krala",
            "Kantueu Muoy",
            "Chaeng Mean Chey",
            "Thipakdei",
            "Andaeuk Haeb",
            "Chhnal Moan"
        ]
    },
    {
        "Order": 165,
        "Name": "Chhnal Moan",
        "Khmer": "ឆ្នាល់មាន់",
        "Geocode": 21306,
        "number of Villages": 7,
        "District": "Koas Krala",
        "Province": "Battambang ",
        "Latitude": 12.6648303,
        "Longitude": 103.1395589,
        "neighbors": [
            "Kaos Krala",
            "Andaeuk Haeb",
            "Doun Ba",
            "Preah Phos",
            "Ou Samril",
            "Ta Sanh",
            "Kampong Lpov",
            "Krapeu Pir",
            "Basak"
        ]
    },
    {
        "Order": 166,
        "Name": "Preaek Chik",
        "Khmer": "ព្រែកជីក",
        "Geocode": 21401,
        "number of Villages": 11,
        "District": "Rukh Kiri",
        "Province": "Battambang ",
        "Latitude": 12.6432592,
        "Longitude": 103.3885798,
        "neighbors": [
            "Kear",
            "Prey Tralach",
            "Basak"
        ]
    },
    {
        "Order": 167,
        "Name": "Prey Tralach",
        "Khmer": "ព្រៃត្រឡាច",
        "Geocode": 21402,
        "number of Villages": 8,
        "District": "Rukh Kiri",
        "Province": "Battambang ",
        "Latitude": 12.5805851,
        "Longitude": 103.4556163,
        "neighbors": [
            "Kear",
            "Prey Svay",
            "Preaek Chik",
            "Sdok Pravoek",
            "Ta Lou",
            "Krapeu Pir",
            "Basak"
        ]
    },
    {
        "Order": 168,
        "Name": "Mukh Reah",
        "Khmer": "មុខរាហ៍",
        "Geocode": 21403,
        "number of Villages": 7,
        "District": "Rukh Kiri",
        "Province": "Battambang ",
        "Latitude": 12.5512046,
        "Longitude": 103.5755118,
        "neighbors": [
            "Sdok Pravoek",
            "Rumlech",
            "Ta Lou"
        ]
    },
    {
        "Order": 169,
        "Name": "Sdok Pravoek",
        "Khmer": "ស្តុកប្រវឹក",
        "Geocode": 21404,
        "number of Villages": 10,
        "District": "Rukh Kiri",
        "Province": "Battambang ",
        "Latitude": 12.5391843,
        "Longitude": 103.5313434,
        "neighbors": [
            "Kear",
            "Prey Svay",
            "Ta Lou",
            "Mukh Reah",
            "Prey Tralach"
        ]
    },
    {
        "Order": 170,
        "Name": "Basak",
        "Khmer": "បាសាក់",
        "Geocode": 21405,
        "number of Villages": 9,
        "District": "Rukh Kiri",
        "Province": "Battambang ",
        "Latitude": 12.5684291,
        "Longitude": 103.3282101,
        "neighbors": [
            "Preah Phos",
            "Chhnal Moan",
            "Preaek Chik",
            "Krapeu Pir",
            "Prey Tralach"
        ]
    },
    {
        "Order": 171,
        "Name": "Batheay",
        "Khmer": "បាធាយ",
        "Geocode": 30101,
        "number of Villages": 6,
        "District": "Batheay",
        "Province": "Kampong Cham ",
        "Latitude": 11.9936503,
        "Longitude": 104.9432705,
        "neighbors": [
            "Sambour",
            "Ampil Tuek",
            "Me Pring",
            "Ph'av",
            "Chbar Ampov",
            "Chealea"
        ]
    },
    {
        "Order": 172,
        "Name": "Chbar Ampov",
        "Khmer": "ច្បារអំពៅ",
        "Geocode": 30102,
        "number of Villages": 4,
        "District": "Batheay",
        "Province": "Kampong Cham ",
        "Latitude": 11.9231801,
        "Longitude": 104.9732245,
        "neighbors": [
            "Kouk Rovieng",
            "Khnor Dambang",
            "Ph'av",
            "Batheay",
            "Preaek Koy",
            "Chealea"
        ]
    },
    {
        "Order": 173,
        "Name": "Chealea",
        "Khmer": "ជាលា",
        "Geocode": 30103,
        "number of Villages": 5,
        "District": "Batheay",
        "Province": "Kampong Cham ",
        "Latitude": 11.8986076,
        "Longitude": 104.9239832,
        "neighbors": [
            "Sambour",
            "Roka Kong Ti Pir",
            "Batheay",
            "Chbar Ampov",
            "Preaek Koy",
            "Tang Krang",
            "Roka Kong Ti Muoy"
        ]
    },
    {
        "Order": 174,
        "Name": "Cheung Prey",
        "Khmer": "ជើងព្រៃ",
        "Geocode": 30104,
        "number of Villages": 7,
        "District": "Batheay",
        "Province": "Kampong Cham ",
        "Latitude": 12.0587695,
        "Longitude": 104.9697406,
        "neighbors": [
            "Tumnob",
            "Tang Krasang",
            "Kouk Rovieng",
            "Me Pring",
            "Ph'av"
        ]
    },
    {
        "Order": 175,
        "Name": "Me Pring",
        "Khmer": "មេព្រីង",
        "Geocode": 30105,
        "number of Villages": 5,
        "District": "Batheay",
        "Province": "Kampong Cham ",
        "Latitude": 12.026439,
        "Longitude": 104.9399572,
        "neighbors": [
            "Tang Krasang",
            "Cheung Prey",
            "Ampil Tuek",
            "Ph'av",
            "Batheay"
        ]
    },
    {
        "Order": 176,
        "Name": "Ph'av",
        "Khmer": "ផ្អាវ",
        "Geocode": 30106,
        "number of Villages": 7,
        "District": "Batheay",
        "Province": "Kampong Cham ",
        "Latitude": 12.0259113,
        "Longitude": 104.9651706,
        "neighbors": [
            "Kouk Rovieng",
            "Cheung Prey",
            "Me Pring",
            "Batheay",
            "Chbar Ampov"
        ]
    },
    {
        "Order": 177,
        "Name": "Sambour",
        "Khmer": "សំបូរ",
        "Geocode": 30107,
        "number of Villages": 9,
        "District": "Batheay",
        "Province": "Kampong Cham ",
        "Latitude": 11.867459,
        "Longitude": 104.8506402,
        "neighbors": [
            "Ampil Tuek",
            "Batheay",
            "Chealea",
            "Kaoh Chen",
            "Tang Krang",
            "Kampong Os",
            "Sambuor Meas"
        ]
    },
    {
        "Order": 178,
        "Name": "Sandaek",
        "Khmer": "សណ្ដែក",
        "Geocode": 30108,
        "number of Villages": 9,
        "District": "Batheay",
        "Province": "Kampong Cham ",
        "Latitude": 12.136516,
        "Longitude": 104.9804287,
        "neighbors": [
            "Pongro",
            "Trab",
            "Pring Chrum",
            "Tumnob",
            "Sdaeung Chey",
            "Tang Krasang"
        ]
    },
    {
        "Order": 179,
        "Name": "Tang Krang",
        "Khmer": "តាំងក្រាំង",
        "Geocode": 30109,
        "number of Villages": 8,
        "District": "Batheay",
        "Province": "Kampong Cham ",
        "Latitude": 11.8479009,
        "Longitude": 104.9213643,
        "neighbors": [
            "Sambour",
            "Roka Kong Ti Pir",
            "Chealea",
            "Svay Ampear",
            "Sambuor Meas"
        ]
    },
    {
        "Order": 180,
        "Name": "Tang Krasang",
        "Khmer": "តាំងក្រសាំង",
        "Geocode": 30110,
        "number of Villages": 11,
        "District": "Batheay",
        "Province": "Kampong Cham ",
        "Latitude": 12.0797899,
        "Longitude": 104.9186681,
        "neighbors": [
            "Trab",
            "Sandaek",
            "Chol Sar",
            "Tumnob",
            "Kaoh Thkov",
            "Cheung Prey",
            "Ampil Tuek",
            "Me Pring"
        ]
    },
    {
        "Order": 181,
        "Name": "Trab",
        "Khmer": "ត្រប់",
        "Geocode": 30111,
        "number of Villages": 11,
        "District": "Batheay",
        "Province": "Kampong Cham ",
        "Latitude": 12.1349504,
        "Longitude": 104.9389805,
        "neighbors": [
            "Sralau",
            "Peam Chhkaok",
            "Pongro",
            "Sandaek",
            "Prey Kri",
            "Chol Sar",
            "Tang Krasang"
        ]
    },
    {
        "Order": 182,
        "Name": "Tumnob",
        "Khmer": "ទំនប់",
        "Geocode": 30112,
        "number of Villages": 7,
        "District": "Batheay",
        "Province": "Kampong Cham ",
        "Latitude": 12.0797838,
        "Longitude": 104.9756466,
        "neighbors": [
            "Sandaek",
            "Sdaeung Chey",
            "Tang Krasang",
            "Kouk Rovieng",
            "Cheung Prey"
        ]
    },
    {
        "Order": 183,
        "Name": "Bos Khnor",
        "Khmer": "បុសខ្នុរ",
        "Geocode": 30201,
        "number of Villages": 15,
        "District": "Chamkar Leu",
        "Province": "Kampong Cham ",
        "Latitude": 12.1810293,
        "Longitude": 105.3229725,
        "neighbors": [
            "Tuol Preah Khleang",
            "Soupheas",
            "Ta Ong",
            "Thma Pun",
            "Boeng Nay",
            "Srak",
            "Trapeang Preah",
            "Ou Svay"
        ]
    },
    {
        "Order": 184,
        "Name": "Chamkar Andoung",
        "Khmer": "ចំការអណ្ដូង",
        "Geocode": 30202,
        "number of Villages": 13,
        "District": "Chamkar Leu",
        "Province": "Kampong Cham ",
        "Latitude": 12.341004,
        "Longitude": 105.1900007,
        "neighbors": [
            "Andoung Pou",
            "Kokir Thum",
            "Chhuk Khsach",
            "Ta Prok",
            "Lvea Leu",
            "Triel",
            "Svay Teab"
        ]
    },
    {
        "Order": 185,
        "Name": "Cheyyou",
        "Khmer": "ជយោ",
        "Geocode": 30203,
        "number of Villages": 7,
        "District": "Chamkar Leu",
        "Province": "Kampong Cham ",
        "Latitude": 12.3204416,
        "Longitude": 105.357094,
        "neighbors": [
            "Dang Kdar",
            "Spueu",
            "Me Sar Chrey",
            "Svay Teab",
            "Soupheas",
            "Ta Ong"
        ]
    },
    {
        "Order": 186,
        "Name": "Lvea Leu",
        "Khmer": "ល្វាលើ",
        "Geocode": 30204,
        "number of Villages": 7,
        "District": "Chamkar Leu",
        "Province": "Kampong Cham ",
        "Latitude": 12.3559502,
        "Longitude": 105.2779983,
        "neighbors": [
            "Kokir Thum",
            "Chamkar Andoung",
            "Spueu",
            "Svay Teab"
        ]
    },
    {
        "Order": 187,
        "Name": "Spueu",
        "Khmer": "ស្ពឺ",
        "Geocode": 30205,
        "number of Villages": 8,
        "District": "Chamkar Leu",
        "Province": "Kampong Cham ",
        "Latitude": 12.3417736,
        "Longitude": 105.3313039,
        "neighbors": [
            "Cheyyou",
            "Dang Kdar",
            "Kokir Thum",
            "Lvea Leu",
            "Me Sar Chrey",
            "Svay Teab"
        ]
    },
    {
        "Order": 188,
        "Name": "Svay Teab",
        "Khmer": "ស្វាយទាប",
        "Geocode": 30206,
        "number of Villages": 17,
        "District": "Chamkar Leu",
        "Province": "Kampong Cham ",
        "Latitude": 12.2896067,
        "Longitude": 105.282117,
        "neighbors": [
            "Andoung Pou",
            "Cheyyou",
            "Lvea Leu",
            "Chamkar Andoung",
            "Spueu",
            "Ta Ong",
            "Chraneang"
        ]
    },
    {
        "Order": 189,
        "Name": "Ta Ong",
        "Khmer": "តាអុង",
        "Geocode": 30207,
        "number of Villages": 12,
        "District": "Chamkar Leu",
        "Province": "Kampong Cham ",
        "Latitude": 12.2391261,
        "Longitude": 105.298898,
        "neighbors": [
            "Cheyyou",
            "Me Sar Chrey",
            "Svay Teab",
            "Soupheas",
            "Chraneang",
            "Svay Phleung",
            "Bos Khnor",
            "Boeng Nay"
        ]
    },
    {
        "Order": 190,
        "Name": "Ta Prok",
        "Khmer": "តាប្រុក",
        "Geocode": 30208,
        "number of Villages": 11,
        "District": "Chamkar Leu",
        "Province": "Kampong Cham ",
        "Latitude": 12.3809009,
        "Longitude": 105.2152735,
        "neighbors": [
            "Kokir Thum",
            "Chhuk Khsach",
            "Chamkar Andoung"
        ]
    },
    {
        "Order": 191,
        "Name": "Khnor Dambang",
        "Khmer": "ខ្នុរដំបង",
        "Geocode": 30301,
        "number of Villages": 3,
        "District": "Cheung Prey",
        "Province": "Kampong Cham ",
        "Latitude": 12.047533,
        "Longitude": 105.0156533,
        "neighbors": [
            "Sdaeung Chey",
            "Pdau Chum",
            "Kouk Rovieng",
            "Chbar Ampov",
            "Preaek Koy"
        ]
    },
    {
        "Order": 192,
        "Name": "Kouk Rovieng",
        "Khmer": "គោករវៀង",
        "Geocode": 30302,
        "number of Villages": 4,
        "District": "Cheung Prey",
        "Province": "Kampong Cham ",
        "Latitude": 12.0437266,
        "Longitude": 104.9917784,
        "neighbors": [
            "Tumnob",
            "Sdaeung Chey",
            "Khnor Dambang",
            "Cheung Prey",
            "Ph'av",
            "Chbar Ampov"
        ]
    },
    {
        "Order": 193,
        "Name": "Pdau Chum",
        "Khmer": "ផ្ដៅជុំ",
        "Geocode": 30303,
        "number of Villages": 4,
        "District": "Cheung Prey",
        "Province": "Kampong Cham ",
        "Latitude": 12.0520101,
        "Longitude": 105.0466501,
        "neighbors": [
            "Sdaeung Chey",
            "Sramar",
            "Soutib",
            "Khnor Dambang",
            "Reay Pay",
            "Preaek Koy"
        ]
    },
    {
        "Order": 194,
        "Name": "Prey Char",
        "Khmer": "ព្រៃចារ",
        "Geocode": 30304,
        "number of Villages": 6,
        "District": "Cheung Prey",
        "Province": "Kampong Cham ",
        "Latitude": 12.014629,
        "Longitude": 105.088784,
        "neighbors": [
            "Sramar",
            "Soutib",
            "Sragnae",
            "Samraong",
            "Reay Pay"
        ]
    },
    {
        "Order": 195,
        "Name": "Pring Chrum",
        "Khmer": "ព្រីងជ្រុំ",
        "Geocode": 30305,
        "number of Villages": 5,
        "District": "Cheung Prey",
        "Province": "Kampong Cham ",
        "Latitude": 12.174666,
        "Longitude": 105.0543366,
        "neighbors": [
            "Pongro",
            "Sandaek",
            "Sampong Chey",
            "Sdaeung Chey"
        ]
    },
    {
        "Order": 196,
        "Name": "Sampong Chey",
        "Khmer": "សំពងជ័យ",
        "Geocode": 30306,
        "number of Villages": 14,
        "District": "Cheung Prey",
        "Province": "Kampong Cham ",
        "Latitude": 12.1815468,
        "Longitude": 105.1274274,
        "neighbors": [
            "Pongro",
            "Sou Young",
            "Svay Phleung",
            "Pring Chrum",
            "Boeng Nay",
            "Sdaeung Chey",
            "Trapeang Kor"
        ]
    },
    {
        "Order": 197,
        "Name": "Sdaeung Chey",
        "Khmer": "ស្ដើងជ័យ",
        "Geocode": 30307,
        "number of Villages": 7,
        "District": "Cheung Prey",
        "Province": "Kampong Cham ",
        "Latitude": 12.0981265,
        "Longitude": 105.0715232,
        "neighbors": [
            "Sandaek",
            "Pring Chrum",
            "Sampong Chey",
            "Tumnob",
            "Trapeang Kor",
            "Sramar",
            "Pdau Chum",
            "Kouk Rovieng",
            "Khnor Dambang"
        ]
    },
    {
        "Order": 198,
        "Name": "Soutib",
        "Khmer": "សូទិព្វ",
        "Geocode": 30308,
        "number of Villages": 8,
        "District": "Cheung Prey",
        "Province": "Kampong Cham ",
        "Latitude": 12.0569346,
        "Longitude": 105.0744299,
        "neighbors": [
            "Sramar",
            "Pdau Chum",
            "Prey Char",
            "Reay Pay"
        ]
    },
    {
        "Order": 199,
        "Name": "Sramar",
        "Khmer": "ស្រម៉រ",
        "Geocode": 30309,
        "number of Villages": 13,
        "District": "Cheung Prey",
        "Province": "Kampong Cham ",
        "Latitude": 12.0753094,
        "Longitude": 105.0748101,
        "neighbors": [
            "Sdaeung Chey",
            "Trapeang Kor",
            "Sour Saen",
            "Pdau Chum",
            "Soutib",
            "Sragnae",
            "Prey Char",
            "Samraong"
        ]
    },
    {
        "Order": 200,
        "Name": "Trapeang Kor",
        "Khmer": "ត្រពាំងគរ",
        "Geocode": 30310,
        "number of Villages": 10,
        "District": "Cheung Prey",
        "Province": "Kampong Cham ",
        "Latitude": 12.1202928,
        "Longitude": 105.1253287,
        "neighbors": [
            "Sampong Chey",
            "Boeng Nay",
            "Sdaeung Chey",
            "Sour Saen",
            "Sramar"
        ]
    },
    {
        "Order": 201,
        "Name": "Boeng Kok",
        "Khmer": "បឹងកុក",
        "Geocode": 30501,
        "number of Villages": 8,
        "District": "Kampong Cham",
        "Province": "Kampong Cham ",
        "Latitude": 12.0015043,
        "Longitude": 105.4664627,
        "neighbors": [
            "Ro'ang",
            "Ampil",
            "Chirou Ti Muoy",
            "Tonle Bet",
            "Kampong Cham",
            "Veal Vong"
        ]
    },
    {
        "Order": 202,
        "Name": "Kampong Cham",
        "Khmer": "កំពង់ចាម",
        "Geocode": 30502,
        "number of Villages": 9,
        "District": "Kampong Cham",
        "Province": "Kampong Cham ",
        "Latitude": 11.9924294,
        "Longitude": 105.4645408,
        "neighbors": [
            "Boeng Kok",
            "Tonle Bet",
            "Veal Vong"
        ]
    },
    {
        "Order": 203,
        "Name": "Sambuor Meas",
        "Khmer": "សំបួរមាស",
        "Geocode": 30503,
        "number of Villages": 10,
        "District": "Kampong Cham",
        "Province": "Kampong Cham ",
        "Latitude": 11.9716229,
        "Longitude": 105.4434941,
        "neighbors": [
            "Kaoh Roka",
            "Kaoh Mitt",
            "Ampil",
            "Veal Vong"
        ]
    },
    {
        "Order": 204,
        "Name": "Veal Vong",
        "Khmer": "វាលវង់",
        "Geocode": 30504,
        "number of Villages": 7,
        "District": "Kampong Cham",
        "Province": "Kampong Cham ",
        "Latitude": 11.9837906,
        "Longitude": 105.4608853,
        "neighbors": [
            "Sambuor Meas",
            "Kaoh Mitt",
            "Ampil",
            "Boeng Kok",
            "Tonle Bet",
            "Kampong Cham"
        ]
    },
    {
        "Order": 205,
        "Name": "Ampil",
        "Khmer": "អំពិល",
        "Geocode": 30601,
        "number of Villages": 14,
        "District": "Kampong Siem",
        "Province": "Kampong Cham ",
        "Latitude": 12.0133018,
        "Longitude": 105.4282768,
        "neighbors": [
            "Sambuor Meas",
            "Kaoh Roka",
            "Krala",
            "Ro'ang",
            "Vihear Thum",
            "Boeng Kok",
            "Veal Vong"
        ]
    },
    {
        "Order": 206,
        "Name": "Hanchey",
        "Khmer": "ហាន់ជ័យ",
        "Geocode": 30602,
        "number of Villages": 4,
        "District": "Kampong Siem",
        "Province": "Kampong Cham ",
        "Latitude": 12.1536062,
        "Longitude": 105.5284223,
        "neighbors": [
            "Tuol Preah Khleang",
            "Preaek Bak",
            "Srak",
            "Kaoh Pir",
            "Kampong Treas",
            "Rumchek"
        ]
    },
    {
        "Order": 207,
        "Name": "Kien Chrey",
        "Khmer": "កៀនជ្រៃ",
        "Geocode": 30603,
        "number of Villages": 6,
        "District": "Kampong Siem",
        "Province": "Kampong Cham ",
        "Latitude": 12.0705076,
        "Longitude": 105.4954188,
        "neighbors": [
            "Srak",
            "Rumchek",
            "Trean",
            "Kaoh Samraong",
            "Ro'ang"
        ]
    },
    {
        "Order": 208,
        "Name": "Kokor",
        "Khmer": "គគរ",
        "Geocode": 30604,
        "number of Villages": 4,
        "District": "Kampong Siem",
        "Province": "Kampong Cham ",
        "Latitude": 11.939426,
        "Longitude": 105.3704026,
        "neighbors": [
            "Kaoh Roka",
            "Moha Khnhoung",
            "Vihear Thum",
            "Roka Koy",
            "Kaoh Tontuem",
            "Kampong Reab"
        ]
    },
    {
        "Order": 209,
        "Name": "Kaoh Mitt",
        "Khmer": "កោះមិត្ដ",
        "Geocode": 30605,
        "number of Villages": 9,
        "District": "Kampong Siem",
        "Province": "Kampong Cham ",
        "Latitude": 11.9573213,
        "Longitude": 105.452075,
        "neighbors": [
            "Sambuor Meas",
            "Kaoh Roka",
            "Kaoh Sotin",
            "Tonle Bet",
            "Veal Vong",
            "Kaoh Tontuem"
        ]
    },
    {
        "Order": 210,
        "Name": "Kaoh Roka",
        "Khmer": "កោះរកា",
        "Geocode": 30606,
        "number of Villages": 7,
        "District": "Kampong Siem",
        "Province": "Kampong Cham ",
        "Latitude": 11.951468,
        "Longitude": 105.4090745,
        "neighbors": [
            "Sambuor Meas",
            "Kaoh Mitt",
            "Kokor",
            "Vihear Thum",
            "Ampil",
            "Kaoh Tontuem"
        ]
    },
    {
        "Order": 211,
        "Name": "Kaoh Samraong",
        "Khmer": "កោះសំរោង",
        "Geocode": 30607,
        "number of Villages": 8,
        "District": "Kampong Siem",
        "Province": "Kampong Cham ",
        "Latitude": 12.0632386,
        "Longitude": 105.5175626,
        "neighbors": [
            "Kampong Treas",
            "Peam Chileang",
            "Rumchek",
            "Kien Chrey",
            "Boeng Pruol",
            "Ro'ang",
            "Chirou Ti Muoy"
        ]
    },
    {
        "Order": 212,
        "Name": "Kaoh Tontuem",
        "Khmer": "កោះទន្ទឹម",
        "Geocode": 30608,
        "number of Villages": 5,
        "District": "Kampong Siem",
        "Province": "Kampong Cham ",
        "Latitude": 11.9357037,
        "Longitude": 105.401235,
        "neighbors": [
            "Kaoh Roka",
            "Kaoh Mitt",
            "Kokor",
            "Kaoh Sotin",
            "Kampong Reab"
        ]
    },
    {
        "Order": 213,
        "Name": "Krala",
        "Khmer": "ក្រឡា",
        "Geocode": 30609,
        "number of Villages": 13,
        "District": "Kampong Siem",
        "Province": "Kampong Cham ",
        "Latitude": 12.040688,
        "Longitude": 105.393502,
        "neighbors": [
            "Ou Svay",
            "Trean",
            "Ro'ang",
            "Mien",
            "Vihear Thum",
            "Ampil"
        ]
    },
    {
        "Order": 214,
        "Name": "Ou Svay",
        "Khmer": "អូរស្វាយ",
        "Geocode": 30610,
        "number of Villages": 7,
        "District": "Kampong Siem",
        "Province": "Kampong Cham ",
        "Latitude": 12.0957976,
        "Longitude": 105.3871217,
        "neighbors": [
            "Bos Khnor",
            "Srak",
            "Trapeang Preah",
            "Trean",
            "Krala",
            "Mien"
        ]
    },
    {
        "Order": 215,
        "Name": "Ro'ang",
        "Khmer": "រអាង",
        "Geocode": 30611,
        "number of Villages": 8,
        "District": "Kampong Siem",
        "Province": "Kampong Cham ",
        "Latitude": 12.022954,
        "Longitude": 105.4657057,
        "neighbors": [
            "Kien Chrey",
            "Trean",
            "Kaoh Samraong",
            "Krala",
            "Ampil",
            "Chirou Ti Muoy",
            "Boeng Kok"
        ]
    },
    {
        "Order": 216,
        "Name": "Rumchek",
        "Khmer": "រំចេក",
        "Geocode": 30612,
        "number of Villages": 4,
        "District": "Kampong Siem",
        "Province": "Kampong Cham ",
        "Latitude": 12.1002937,
        "Longitude": 105.5160858,
        "neighbors": [
            "Srak",
            "Hanchey",
            "Kampong Treas",
            "Peam Chileang",
            "Kien Chrey",
            "Kaoh Samraong"
        ]
    },
    {
        "Order": 217,
        "Name": "Srak",
        "Khmer": "ស្រក",
        "Geocode": 30613,
        "number of Villages": 4,
        "District": "Kampong Siem",
        "Province": "Kampong Cham ",
        "Latitude": 12.1319265,
        "Longitude": 105.4347385,
        "neighbors": [
            "Tuol Preah Khleang",
            "Bos Khnor",
            "Hanchey",
            "Ou Svay",
            "Rumchek",
            "Kien Chrey",
            "Trean"
        ]
    },