{
    "type": "FeatureCollection",
    "features": [
        {
            "type": "Feature",
            "properties": {
                "code": "KH010201",
                "name": "Banteay Neang"
            },
            "geometry": {
                "coordinates": [
                    103.0439942023802,
                    13.47478242219066
                ],
                "type": "Point"
            }
        },
        {
            "type": "Feature",
            "properties": {
                "code": "KH010202",
                "name": "Bat Trang"
            },
            "geometry": {
                "coordinates": [
                    102.96152514435684,
                    13.52841417478786
                ],
                "type": "Point"
            }
        },
        {
            "type": "Feature",
            "properties": {
                "code": "KH010203",
                "name": "Chamnaom"
            },
            "geometry": {
                "coordinates": [
                    102.89352457952988,
                    13.452033061380176
                ],
                "type": "Point"
            }
        },
        {
            "type": "Feature",
            "properties": {
                "code": "KH010204",
                "name": "Kouk Ballangk"
            },
            "geometry": {
                "coordinates": [
                    103.12784982707817,
                    13.456323451283003
                ],
                "type": "Point"
            }
        },
        {
            "type": "Feature",
            "properties": {
                "code": "KH010205",
                "name": "Koy Maeng"
            },
            "geometry": {
                "coordinates": [
                    103.0984968410362,
                    13.553626142335434
                ],
                "type": "Point"
            }
        },
        {
            "type": "Feature",
            "properties": {
                "code": "KH010206",
                "name": "Ou Prasat"
            },
            "geometry": {
                "coordinates": [
                    103.036752854848,
                    13.446669654749524
                ],
                "type": "Point"
            }
        },
        {
            "type": "Feature",
            "properties": {
                "code": "KH010207",
                "name": "Phnum Touch"
            },
            "geometry": {
                "coordinates": [
                    103.04252439079588,
                    13.409402312014892
                ],
                "type": "Point"
            }
        },
        {
            "type": "Feature",
            "properties": {
                "code": "KH010208",
                "name": "Rohat Tuek"
            },
            "geometry": {
                "coordinates": [
                    102.9453194035484,
                    13.486940335044782
                ],
                "type": "Point"
            }
        },
        {
            "type": "Feature",
            "properties": {
                "code": "KH010209",
                "name": "Ruessei Kraok"
            },
            "geometry": {
                "coordinates": [
                    103.0337401749132,
                    13.54658166203657
                ],
                "type": "Point"
            }
        },
        {
            "type": "Feature",
            "properties": {
                "code": "KH010210",
                "name": "Sambuor"
            },
            "geometry": {
                "coordinates": [
                    103.20786484406536,
                    13.428652793933576
                ],
                "type": "Point"
            }
        },
        {
            "type": "Feature",
            "properties": {
                "code": "KH010211",
                "name": "Soea"
            },
            "geometry": {
                "coordinates": [
                    102.8311899535028,
                    13.41263992606054
                ],
                "type": "Point"
            }
        },
        {
            "type": "Feature",
            "properties": {
                "code": "KH010212",
                "name": "Srah Reang"
            },
            "geometry": {
                "coordinates": [
                    103.0949448922557,
                    13.492873659533902
                ],
                "type": "Point"
            }
        },
        {
            "type": "Feature",
            "properties": {
                "code": "KH010213",
                "name": "Ta Lam"
            },
            "geometry": {
                "coordinates": [
                    103.10434946107414,
                    13.520652559148417
                ],
                "type": "Point"
            }
        },
        {
            "type": "Feature",
            "properties": {
                "code": "KH010301",
                "name": "Nam Tau"
            },
            "geometry": {
                "coordinates": [
                    103.37282412283574,
                    13.898581516791548
                ],
                "type": "Point"
            }
        },
        {
            "type": "Feature",
            "properties": {
                "code": "KH010302",
                "name": "Poy Char"
            },
            "geometry": {
                "coordinates": [
                    103.2903994802641,
                    13.85350898436537
                ],
                "type": "Point"
            }
        },
        {
            "type": "Feature",
            "properties": {
                "code": "KH010303",
                "name": "Ponley"
            },
            "geometry": {
                "coordinates": [
                    103.21732729878316,
                    13.812032303968047
                ],
                "type": "Point"
            }
        },
        {
            "type": "Feature",
            "properties": {
                "code": "KH010304",
                "name": "Spean Sraeng"
            },
            "geometry": {
                "coordinates": [
                    103.39911833857592,
                    13.71039009227794
                ],
                "type": "Point"
            }
        },
        {
            "type": "Feature",
            "properties": {
                "code": "KH010305",
                "name": "Srah Chik"
            },
            "geometry": {
                "coordinates": [
                    103.31223071092438,
                    13.719626150006874
                ],
                "type": "Point"
            }
        },
        {
            "type": "Feature",
            "properties": {
                "code": "KH010306",
                "name": "Phnum Dei"
            },
            "geometry": {
                "coordinates": [
                    103.36811023766124,
                    13.758751110583232
                ],
                "type": "Point"
            }
        },
        {
            "type": "Feature",
            "properties": {
                "code": "KH010401",
                "name": "Chnuor Mean Chey"
            },
            "geometry": {
                "coordinates": [
                    103.0956478324076,
                    13.622639957415185
                ],
                "type": "Point"
            }
        },
        {
            "type": "Feature",
            "properties": {
                "code": "KH010402",
                "name": "Chob Vari"
            },
            "geometry": {
                "coordinates": [
                    103.16481965566877,
                    13.666099339939716
                ],
                "type": "Point"
            }
        },
        {
            "type": "Feature",
            "properties": {
                "code": "KH010403",
                "name": "Phnum Lieb"
            },
            "geometry": {
                "coordinates": [
                    103.2947709005314,
                    13.52288718549338
                ],
                "type": "Point"
            }
        },
        {
            "type": "Feature",
            "properties": {
                "code": "KH010404",
                "name": "Prasat"
            },
            "geometry": {
                "coordinates": [
                    103.3628284023098,
                    13.460749078296056
                ],
                "type": "Point"
            }
        },
        {
            "type": "Feature",
            "properties": {
                "code": "KH010405",
                "name": "Preak Netr Preah"
            },
            "geometry": {
                "coordinates": [
                    103.16522020975808,
                    13.558068716122612
                ],
                "type": "Point"
            }
        },
        {
            "type": "Feature",
            "properties": {
                "code": "KH010406",
                "name": "Rohal"
            },
            "geometry": {
                "coordinates": [
                    103.23511856975033,
                    13.596036870454672
                ],
                "type": "Point"
            }
        },
        {
            "type": "Feature",
            "properties": {
                "code": "KH010407",
                "name": "Tean Kam"
            },
            "geometry": {
                "coordinates": [
                    103.21485410043869,
                    13.710598686863026
                ],
                "type": "Point"
            }
        },
        {
            "type": "Feature",
            "properties": {
                "code": "KH010408",
                "name": "Tuek Chour"
            },
            "geometry": {
                "coordinates": [
                    103.3670070479368,
                    13.623376464405448
                ],
                "type": "Point"
            }
        },
        {
            "type": "Feature",
            "properties": {
                "code": "KH010409",
                "name": "Bos Sbov"
            },
            "geometry": {
                "coordinates": [
                    103.07347794313758,
                    13.688707423071566
                ],
                "type": "Point"
            }
        },
        {
            "type": "Feature",
            "properties": {
                "code": "KH010501",
                "name": "Changha"
            },
            "geometry": {
                "coordinates": [
                    102.88974277292633,
                    13.650506722097877
                ],
                "type": "Point"
            }
        },
        {
            "type": "Feature",
            "properties": {
                "code": "KH010502",
                "name": "Koub"
            },
            "geometry": {
                "coordinates": [
                    102.78624564992812,
                    13.617997928566066
                ],
                "type": "Point"
            }
        },
        {
            "type": "Feature",
            "properties": {
                "code": "KH010503",
                "name": "Kuttasat"
            },
            "geometry": {
                "coordinates": [
                    102.7539919755716,
                    13.565022800873056
                ],
                "type": "Point"
            }
        },
        {
            "type": "Feature",
            "properties": {
                "code": "KH010505",
                "name": "Samraong"
            },
            "geometry": {
                "coordinates": [
                    102.82795532346124,
                    13.531150246980497
                ],
                "type": "Point"
            }
        },
        {
            "type": "Feature",
            "properties": {
                "code": "KH010506",
                "name": "Souphi"
            },
            "geometry": {
                "coordinates": [
                    102.82105880836336,
                    13.653659802554404
                ],
                "type": "Point"
            }
        },
        {
            "type": "Feature",
            "properties": {
                "code": "KH010507",
                "name": "Soengh"
            },
            "geometry": {
                "coordinates": [
                    102.83687165517186,
                    13.721413090154511
                ],
                "type": "Point"
            }
        },
        {
            "type": "Feature",
            "properties": {
                "code": "KH010509",
                "name": "Ou Beichoan"
            },
            "geometry": {
                "coordinates": [
                    102.73624435280142,
                    13.734429094403916
                ],
                "type": "Point"
            }
        },
        {
            "type": "Feature",
            "properties": {
                "code": "KH010602",
                "name": "Kampong Svay"
            },
            "geometry": {
                "coordinates": [
                    102.96573641610036,
                    13.625103164247957
                ],
                "type": "Point"
            }
        },
        {
            "type": "Feature",
            "properties": {
                "code": "KH010603",
                "name": "Kaoh Pong Satv"
            },
            "geometry": {
                "coordinates": [
                    103.02901947060002,
                    13.5768777713083
                ],
                "type": "Point"
            }
        },
        {
            "type": "Feature",
            "properties": {
                "code": "KH010604",
                "name": "Mkak"
            },
            "geometry": {
                "coordinates": [
                    102.96216585724152,
                    13.677345678599302
                ],
                "type": "Point"
            }
        },
        {
            "type": "Feature",
            "properties": {
                "code": "KH010605",
                "name": "Ou Ambel"
            },
            "geometry": {
                "coordinates": [
                    102.9272454833635,
                    13.554909163550318
                ],
                "type": "Point"
            }
        },
        {
            "type": "Feature",
            "properties": {
                "code": "KH010606",
                "name": "Phniet"
            },
            "geometry": {
                "coordinates": [
                    103.04194151121423,
                    13.60607373923379
                ],
                "type": "Point"
            }
        },
        {
            "type": "Feature",
            "properties": {
                "code": "KH010607",
                "name": "Preah Ponlea"
            },
            "geometry": {
                "coordinates": [
                    102.9877264897994,
                    13.582316039492143
                ],
                "type": "Point"
            }
        },
        {
            "type": "Feature",
            "properties": {
                "code": "KH010608",
                "name": "Tuek Thla"
            },
            "geometry": {
                "coordinates": [
                    102.9080986130448,
                    13.581005351038264
                ],
                "type": "Point"
            }
        },
        {
            "type": "Feature",
            "properties": {
                "code": "KH010701",
                "name": "Banteay Chhmar"
            },
            "geometry": {
                "coordinates": [
                    103.04482468313864,
                    14.1032219908001
                ],
                "type": "Point"
            }
        },
        {
            "type": "Feature",
            "properties": {
                "code": "KH010702",
                "name": "Kouk Romiet"
            },
            "geometry": {
                "coordinates": [
                    102.93510382554626,
                    13.967822748172877
                ],
                "type": "Point"
            }
        },
        {
            "type": "Feature",
            "properties": {
                "code": "KH010703",
                "name": "Phum Thmei"
            },
            "geometry": {
                "coordinates": [
                    103.0636316291278,
                    13.894759481774864
                ],
                "type": "Point"
            }
        },
        {
            "type": "Feature",
            "properties": {
                "code": "KH010704",
                "name": "Thma Puok"
            },
            "geometry": {
                "coordinates": [
                    103.1144536503988,
                    13.975208676620596
                ],
                "type": "Point"
            }
        },
        {
            "type": "Feature",
            "properties": {
                "code": "KH010705",
                "name": "Kouk Kakthen"
            },
            "geometry": {
                "coordinates": [
                    103.14421857379652,
                    13.886150410023706
                ],
                "type": "Point"
            }
        },
        {
            "type": "Feature",
            "properties": {
                "code": "KH010706",
                "name": "Kumru"
            },
            "geometry": {
                "coordinates": [
                    103.02769950314372,
                    13.98780621248565
                ],
                "type": "Point"
            }
        },
        {
            "type": "Feature",
            "properties": {
                "code": "KH010801",
                "name": "Phkoam"
            },
            "geometry": {
                "coordinates": [
                    103.15102012460136,
                    13.82037830640995
                ],
                "type": "Point"
            }
        },
        {
            "type": "Feature",
            "properties": {
                "code": "KH010802",
                "name": "Sarongk"
            },
            "geometry": {
                "coordinates": [
                    103.11756332725253,
                    13.763027049902156
                ],
                "type": "Point"
            }
        },
        {
            "type": "Feature",
            "properties": {
                "code": "KH010803",
                "name": "Sla Kram"
            },
            "geometry": {
                "coordinates": [
                    102.88134892061646,
                    13.76141463677612
                ],
                "type": "Point"
            }
        },
        {
            "type": "Feature",
            "properties": {
                "code": "KH010804",
                "name": "Svay Chek"
            },
            "geometry": {
                "coordinates": [
                    102.863396663472,
                    13.841193038216796
                ],
                "type": "Point"
            }
        },
        {
            "type": "Feature",
            "properties": {
                "code": "KH010805",
                "name": "Ta Baen"
            },
            "geometry": {
                "coordinates": [
                    102.978624166658,
                    13.76565439661974
                ],
                "type": "Point"
            }
        },
        {
            "type": "Feature",
            "properties": {
                "code": "KH010806",
                "name": "Ta Phou"
            },
            "geometry": {
                "coordinates": [
                    103.04648446758598,
                    13.770490616268027
                ],
                "type": "Point"
            }
        },
        {
            "type": "Feature",
            "properties": {
                "code": "KH010807",
                "name": "Treas"
            },
            "geometry": {
                "coordinates": [
                    102.92975298792504,
                    13.884339048924582
                ],
                "type": "Point"
            }
        },
        {
            "type": "Feature",
            "properties": {
                "code": "KH010808",
                "name": "Roluos"
            },
            "geometry": {
                "coordinates": [
                    102.98611706245836,
                    13.800912789960956
                ],
                "type": "Point"
            }
        },
        {
            "type": "Feature",
            "properties": {
                "code": "KH010901",
                "name": "Boeng Beng"
            },
            "geometry": {
                "coordinates": [
                    102.369199349176,
                    13.51550836794254
                ],
                "type": "Point"
            }
        },
        {
            "type": "Feature",
            "properties": {
                "code": "KH010902",
                "name": "Malai"
            },
            "geometry": {
                "coordinates": [
                    102.39122857792606,
                    13.52529863177424
                ],
                "type": "Point"
            }
        },
        {
            "type": "Feature",
            "properties": {
                "code": "KH010903",
                "name": "Ou Sampoar"
            },
            "geometry": {
                "coordinates": [
                    102.50333295736164,
                    13.514997332972111
                ],
                "type": "Point"
            }
        },
        {
            "type": "Feature",
            "properties": {
                "code": "KH010904",
                "name": "Ou Sralau"
            },
            "geometry": {
                "coordinates": [
                    102.4319894253515,
                    13.521711321287354
                ],
                "type": "Point"
            }
        },
        {
            "type": "Feature",
            "properties": {
                "code": "KH010905",
                "name": "Tuol Pongro"
            },
            "geometry": {
                "coordinates": [
                    102.59995793197096,
                    13.532840921472062
                ],
                "type": "Point"
            }
        },
        {
            "type": "Feature",
            "properties": {
                "code": "KH010906",
                "name": "Ta Kong"
            },
            "geometry": {
                "coordinates": [
                    102.72439791453697,
                    13.507896424446152
                ],
                "type": "Point"
            }
        },
        {
            "type": "Feature",
            "properties": {
                "code": "KH011001",
                "name": "Nimitt"
            },
            "geometry": {
                "coordinates": [
                    102.688469020239,
                    13.637331441087452
                ],
                "type": "Point"
            }
        },
        {
            "type": "Feature",
            "properties": {
                "code": "KH011002",
                "name": "Paoy Paet"
            },
            "geometry": {
                "coordinates": [
                    102.5817777885498,
                    13.672990185842067
                ],
                "type": "Point"
            }
        },
        {
            "type": "Feature",
            "properties": {
                "code": "KH011003",
                "name": "Phsar Kandal"
            },
            "geometry": {
                "coordinates": [
                    102.6192225011795,
                    13.66043522026938
                ],
                "type": "Point"
            }
        },
        {
            "type": "Feature",
            "properties": {
                "code": "KH020101",
                "name": "Kantueu Muoy"
            },
            "geometry": {
                "coordinates": [
                    103.1666573368985,
                    12.881541574590177
                ],
                "type": "Point"
            }
        },
        {
            "type": "Feature",
            "properties": {
                "code": "KH020102",
                "name": "Kantueu Pir"
            },
            "geometry": {
                "coordinates": [
                    103.131660801247,
                    12.927043573441422
                ],
                "type": "Point"
            }
        },
        {
            "type": "Feature",
            "properties": {
                "code": "KH020103",
                "name": "Bay Damram"
            },
            "geometry": {
                "coordinates": [
                    103.1831523800676,
                    12.961637848350506
                ],
                "type": "Point"
            }
        },
        {
            "type": "Feature",
            "properties": {
                "code": "KH020104",
                "name": "Chheu Teal"
            },
            "geometry": {
                "coordinates": [
                    103.14019090195433,
                    12.995992001750237
                ],
                "type": "Point"
            }
        },
        {
            "type": "Feature",
            "properties": {
                "code": "KH020105",
                "name": "Chaeng Mean Chey"
            },
            "geometry": {
                "coordinates": [
                    103.08148901756272,
                    12.8392583799344
                ],
                "type": "Point"
            }
        },
        {
            "type": "Feature",
            "properties": {
                "code": "KH020106",
                "name": "Phnum Sampov"
            },
            "geometry": {
                "coordinates": [
                    103.08401797621772,
                    13.023009988878794
                ],
                "type": "Point"
            }
        },
        {
            "type": "Feature",
            "properties": {
                "code": "KH020107",
                "name": "Snoeng"
            },
            "geometry": {
                "coordinates": [
                    102.99883522856668,
                    12.965859964495156
                ],
                "type": "Point"
            }
        },
        {
            "type": "Feature",
            "properties": {
                "code": "KH020108",
                "name": "Ta Kream"
            },
            "geometry": {
                "coordinates": [
                    102.96744456354044,
                    13.07208126692268
                ],
                "type": "Point"
            }
        },
        {
            "type": "Feature",
            "properties": {
                "code": "KH020201",
                "name": "Ta Pung"
            },
            "geometry": {
                "coordinates": [
                    103.18383084980525,
                    13.272246146339803
                ],
                "type": "Point"
            }
        },
        {
            "type": "Feature",
            "properties": {
                "code": "KH020202",
                "name": "Ta Meun"
            },
            "geometry": {
                "coordinates": [
                    103.16400780106426,
                    13.31530631834766
                ],
                "type": "Point"
            }
        },
        {
            "type": "Feature",
            "properties": {
                "code": "KH020203",
                "name": "Ou Ta Ki"
            },
            "geometry": {
                "coordinates": [
                    103.11191307621309,
                    13.174859164449463
                ],
                "type": "Point"
            }
        },
        {
            "type": "Feature",
            "properties": {
                "code": "KH020204",
                "name": "Chrey"
            },
            "geometry": {
                "coordinates": [
                    103.09754594623948,
                    13.114489614887068
                ],
                "type": "Point"
            }
        },
        {
            "type": "Feature",
            "properties": {
                "code": "KH020205",
                "name": "Anlong Run"
            },
            "geometry": {
                "coordinates": [
                    102.98905246870638,
                    13.159990691043664
                ],
                "type": "Point"
            }
        },
        {
            "type": "Feature",
            "properties": {
                "code": "KH020206",
                "name": "Chrouy Sdau"
            },
            "geometry": {
                "coordinates": [
                    103.1328578217665,
                    13.353933504192774
                ],
                "type": "Point"
            }
        },
        {
            "type": "Feature",
            "properties": {
                "code": "KH020207",
                "name": "Boeng Pring"
            },
            "geometry": {
                "coordinates": [
                    103.08340970072892,
                    13.381060078981012
                ],
                "type": "Point"
            }
        },
        {
            "type": "Feature",
            "properties": {
                "code": "KH020208",
                "name": "Kouk Khmum"
            },
            "geometry": {
                "coordinates": [
                    103.06391924571774,
                    13.25361551111168
                ],
                "type": "Point"
            }
        },
        {
            "type": "Feature",
            "properties": {
                "code": "KH020209",
                "name": "Bansay Traeng"
            },
            "geometry": {
                "coordinates": [
                    103.02407277612346,
                    13.250611708339289
                ],
                "type": "Point"
            }
        },
        {
            "type": "Feature",
            "properties": {
                "code": "KH020210",
                "name": "Rung Chrey"
            },
            "geometry": {
                "coordinates": [
                    102.98702077639976,
                    13.257835154380334
                ],
                "type": "Point"
            }
        },
        {
            "type": "Feature",
            "properties": {
                "code": "KH020301",
                "name": "Tuol Ta Ek"
            },
            "geometry": {
                "coordinates": [
                    103.18632189477889,
                    13.093956160815218
                ],
                "type": "Point"
            }
        },
        {
            "type": "Feature",
            "properties": {
                "code": "KH020302",
                "name": "Prek Preah Sdach"
            },
            "geometry": {
                "coordinates": [
                    103.2116565851304,
                    13.084187016133988
                ],
                "type": "Point"
            }
        },
        {
            "type": "Feature",
            "properties": {
                "code": "KH020303",
                "name": "Rottanak"
            },
            "geometry": {
                "coordinates": [
                    103.2149018518824,
                    13.099608039237816
                ],
                "type": "Point"
            }
        },
        {
            "type": "Feature",
            "properties": {
                "code": "KH020304",
                "name": "Chomkar Somraong"
            },
            "geometry": {
                "coordinates": [
                    103.17964232434365,
                    13.12094884020859
                ],
                "type": "Point"
            }
        },
        {
            "type": "Feature",
            "properties": {
                "code": "KH020305",
                "name": "Sla Ket"
            },
            "geometry": {
                "coordinates": [
                    103.18855168439086,
                    13.130049153184917
                ],
                "type": "Point"
            }
        },
        {
            "type": "Feature",
            "properties": {
                "code": "KH020306",
                "name": "Kdol Doun Teav"
            },
            "geometry": {
                "coordinates": [
                    103.19246003775945,
                    13.14394668852653
                ],
                "type": "Point"
            }
        },
        {
            "type": "Feature",
            "properties": {
                "code": "KH020307",
                "name": "OMal"
            },
            "geometry": {
                "coordinates": [
                    103.1255567485263,
                    13.071967912707906
                ],
                "type": "Point"
            }
        },
        {
            "type": "Feature",
            "properties": {
                "code": "KH020308",
                "name": "wat Kor"
            },
            "geometry": {
                "coordinates": [
                    103.17436100538552,
                    13.054934075234907
                ],
                "type": "Point"
            }
        },
        {
            "type": "Feature",
            "properties": {
                "code": "KH020309",
                "name": "Ou Char"
            },
            "geometry": {
                "coordinates": [
                    103.1666152491273,
                    13.102926109248267
                ],
                "type": "Point"
            }
        },
        {
            "type": "Feature",
            "properties": {
                "code": "KH020310",
                "name": "Svay Por"
            },
            "geometry": {
                "coordinates": [
                    103.1970340736147,
                    13.093343469596322
                ],
                "type": "Point"
            }
        },
        {
            "type": "Feature",
            "properties": {
                "code": "KH020401",
                "name": "Bavel"
            },
            "geometry": {
                "coordinates": [
                    102.88992997294083,
                    13.25605741072181
                ],
                "type": "Point"
            }
        },
        {
            "type": "Feature",
            "properties": {
                "code": "KH020402",
                "name": "Khnach Romeas"
            },
            "geometry": {
                "coordinates": [
                    102.93551654426945,
                    13.231974653604723
                ],
                "type": "Point"
            }
        },
        {
            "type": "Feature",
            "properties": {
                "code": "KH020403",
                "name": "Lvea"
            },
            "geometry": {
                "coordinates": [
                    102.93701290708393,
                    13.33135567753265
                ],
                "type": "Point"
            }
        },
        {
            "type": "Feature",
            "properties": {
                "code": "KH020404",
                "name": "Prey Khpos"
            },
            "geometry": {
                "coordinates": [
                    102.83299757261024,
                    13.34745545621801
                ],
                "type": "Point"
            }
        },
        {
            "type": "Feature",
            "properties": {
                "code": "KH020405",
                "name": "Ampil Pram Daeum"
            },
            "geometry": {
                "coordinates": [
                    102.76918563046652,
                    13.276437307895636
                ],
                "type": "Point"
            }
        },
        {
            "type": "Feature",
            "properties": {
                "code": "KH020406",
                "name": "Kdol Ta Haen"
            },
            "geometry": {
                "coordinates": [
                    102.80400713545528,
                    13.18615643254816
                ],
                "type": "Point"
            }
        },
        {
            "type": "Feature",
            "properties": {
                "code": "KH020407",
                "name": "Khlaeng Meas"
            },
            "geometry": {
                "coordinates": [
                    102.82549823941768,
                    13.091446915380317
                ],
                "type": "Point"
            }
        },
        {
            "type": "Feature",
            "properties": {
                "code": "KH020408",
                "name": "Boeung Pram"
            },
            "geometry": {
                "coordinates": [
                    102.72408932642077,
                    13.362041690943547
                ],
                "type": "Point"
            }
        },
        {
            "type": "Feature",
            "properties": {
                "code": "KH020501",
                "name": "Preaek Norint"
            },
            "geometry": {
                "coordinates": [
                    103.27485228688218,
                    13.231777505090257
                ],
                "type": "Point"
            }
        },
        {
            "type": "Feature",
            "properties": {
                "code": "KH020502",
                "name": "Samraong Knong"
            },
            "geometry": {
                "coordinates": [
                    103.25064783370502,
                    13.129360829022415
                ],
                "type": "Point"
            }
        },
        {
            "type": "Feature",
            "properties": {
                "code": "KH020503",
                "name": "Preaek Khpob"
            },
            "geometry": {
                "coordinates": [
                    103.27489919368084,
                    13.161677599412569
                ],
                "type": "Point"
            }
        },
        {
            "type": "Feature",
            "properties": {
                "code": "KH020504",
                "name": "Preaek Luong"
            },
            "geometry": {
                "coordinates": [
                    103.3195761706236,
                    13.208641982832852
                ],
                "type": "Point"
            }
        },
        {
            "type": "Feature",
            "properties": {
                "code": "KH020505",
                "name": "Peam Aek"
            },
            "geometry": {
                "coordinates": [
                    103.20609438092455,
                    13.218028839173458
                ],
                "type": "Point"
            }
        },
        {
            "type": "Feature",
            "properties": {
                "code": "KH020506",
                "name": "Prey Chas"
            },
            "geometry": {
                "coordinates": [
                    103.3904292976537,
                    13.30746692523452
                ],
                "type": "Point"
            }
        },
        {
            "type": "Feature",
            "properties": {
                "code": "KH020507",
                "name": "Kaoh Chiveang"
            },
            "geometry": {
                "coordinates": [
                    103.5917975975322,
                    13.21897595772278
                ],
                "type": "Point"
            }
        },
        {
            "type": "Feature",
            "properties": {
                "code": "KH020601",
                "name": "Moung"
            },
            "geometry": {
                "coordinates": [
                    103.39037076110316,
                    12.778934530596937
                ],
                "type": "Point"
            }
        },
        {
            "type": "Feature",
            "properties": {
                "code": "KH020602",
                "name": "Kear"
            },
            "geometry": {
                "coordinates": [
                    103.45503895059818,
                    12.713594139459367
                ],
                "type": "Point"
            }
        },
        {
            "type": "Feature",
            "properties": {
                "code": "KH020603",
                "name": "Prey Svay"
            },
            "geometry": {
                "coordinates": [
                    103.52827622806288,
                    12.721208577225244
                ],
                "type": "Point"
            }
        },
        {
            "type": "Feature",
            "properties": {
                "code": "KH020604",
                "name": "Ruessei Krang"
            },
            "geometry": {
                "coordinates": [
                    103.59850030509412,
                    12.700964530179215
                ],
                "type": "Point"
            }
        },
        {
            "type": "Feature",
            "properties": {
                "code": "KH020605",
                "name": "Chrey"
            },
            "geometry": {
                "coordinates": [
                    103.61875714092189,
                    12.922841619669358
                ],
                "type": "Point"
            }
        },
        {
            "type": "Feature",
            "properties": {
                "code": "KH020606",
                "name": "Ta Loas"
            },
            "geometry": {
                "coordinates": [
                    103.494174631049,
                    12.905078873575953
                ],
                "type": "Point"
            }
        },
        {
            "type": "Feature",
            "properties": {
                "code": "KH020607",
                "name": "Kakaoh"
            },
            "geometry": {
                "coordinates": [
                    103.40979101990445,
                    12.850192976996189
                ],
                "type": "Point"
            }
        },
        {
            "type": "Feature",
            "properties": {
                "code": "KH020608",
                "name": "Prey Touch"
            },
            "geometry": {
                "coordinates": [
                    103.38278839371544,
                    12.89692020802733
                ],
                "type": "Point"
            }
        },
        {
            "type": "Feature",
            "properties": {
                "code": "KH020609",
                "name": "Robas Mongkol"
            },
            "geometry": {
                "coordinates": [
                    103.37469031035766,
                    12.710211353504866
                ],
                "type": "Point"
            }
        },
        {
            "type": "Feature",
            "properties": {
                "code": "KH020701",
                "name": "Sdau"
            },
            "geometry": {
                "coordinates": [
                    102.97504069909446,
                    12.909311836126443
                ],
                "type": "Point"
            }
        },
        {
            "type": "Feature",
            "properties": {
                "code": "KH020702",
                "name": "Andaeuk Haeb"
            },
            "geometry": {
                "coordinates": [
                    102.9958657128999,
                    12.806438704278342
                ],
                "type": "Point"
            }
        },
        {
            "type": "Feature",
            "properties": {
                "code": "KH020703",
                "name": "Phlov Meas"
            },
            "geometry": {
                "coordinates": [
                    102.84017307839298,
                    12.774606960198453
                ],
                "type": "Point"
            }
        },
        {
            "type": "Feature",
            "properties": {
                "code": "KH020704",
                "name": "Traeng"
            },
            "geometry": {
                "coordinates": [
                    102.84803371691498,
                    12.868379409402491
                ],
                "type": "Point"
            }
        },
        {
            "type": "Feature",
            "properties": {
                "code": "KH020705",
                "name": "Reaksmei Songha"
            },
            "geometry": {
                "coordinates": [
                    102.81975187061732,
                    12.987631624529095
                ],
                "type": "Point"
            }
        },
        {
            "type": "Feature",
            "properties": {
                "code": "KH020801",
                "name": "Anlong Vil"
            },
            "geometry": {
                "coordinates": [
                    103.27541501780028,
                    13.074758057545496
                ],
                "type": "Point"
            }
        },
        {
            "type": "Feature",
            "properties": {
                "code": "KH020802",
                "name": "Norea"
            },
            "geometry": {
                "coordinates": [
                    103.24549714359374,
                    13.111638656819064
                ],
                "type": "Point"
            }
        },
        {
            "type": "Feature",
            "properties": {
                "code": "KH020803",
                "name": "Ta Pon"
            },
            "geometry": {
                "coordinates": [
                    103.39501829638046,
                    13.16685492880077
                ],
                "type": "Point"
            }
        },
        {
            "type": "Feature",
            "properties": {
                "code": "KH020804",
                "name": "Roka"
            },
            "geometry": {
                "coordinates": [
                    103.41094954802873,
                    13.108625633777493
                ],
                "type": "Point"
            }
        },
        {
            "type": "Feature",
            "properties": {
                "code": "KH020805",
                "name": "Kampong Preah"
            },
            "geometry": {
                "coordinates": [
                    103.48828432045228,
                    13.06959460122906
                ],
                "type": "Point"
            }
        },
        {
            "type": "Feature",
            "properties": {
                "code": "KH020806",
                "name": "Kampong Prieng"
            },
            "geometry": {
                "coordinates": [
                    103.47002206872772,
                    13.000274919099866
                ],
                "type": "Point"
            }
        },
        {
            "type": "Feature",
            "properties": {
                "code": "KH020807",
                "name": "Reang Kesei"
            },
            "geometry": {
                "coordinates": [
                    103.2662445454678,
                    12.952727777359804
                ],
                "type": "Point"
            }
        },
        {
            "type": "Feature",
            "properties": {
                "code": "KH020808",
                "name": "Ou Dambang Muoy"
            },
            "geometry": {
                "coordinates": [
                    103.23032327446762,
                    13.02806250304811
                ],
                "type": "Point"
            }
        },
        {
            "type": "Feature",
            "properties": {
                "code": "KH020809",
                "name": "Ou Dambang Pir"
            },
            "geometry": {
                "coordinates": [
                    103.2560613953782,
                    13.03889964588449
                ],
                "type": "Point"
            }
        },
        {
            "type": "Feature",
            "properties": {
                "code": "KH020810",
                "name": "Vaot Ta Muem"
            },
            "geometry": {
                "coordinates": [
                    103.2045056050237,
                    13.004050430112162
                ],
                "type": "Point"
            }
        },
        {
            "type": "Feature",
            "properties": {
                "code": "KH020901",
                "name": "Ta Taok"
            },
            "geometry": {
                "coordinates": [
                    102.82323486563767,
                    12.458221010205484
                ],
                "type": "Point"
            }
        },
        {
            "type": "Feature",
            "properties": {
                "code": "KH020902",
                "name": "Kampong Lpov"
            },
            "geometry": {
                "coordinates": [
                    102.95417799521114,
                    12.550651155387197
                ],
                "type": "Point"
            }
        },
        {
            "type": "Feature",
            "properties": {
                "code": "KH020903",
                "name": "Ou Samril"
            },
            "geometry": {
                "coordinates": [
                    102.9519457335163,
                    12.717537625633518
                ],
                "type": "Point"
            }
        },
        {
            "type": "Feature",
            "properties": {
                "code": "KH020904",
                "name": "Sung"
            },
            "geometry": {
                "coordinates": [
                    102.77648867714836,
                    12.570227688667234
                ],
                "type": "Point"
            }
        },
        {
            "type": "Feature",
            "properties": {
                "code": "KH020905",
                "name": "Samlout"
            },
            "geometry": {
                "coordinates": [
                    102.70813866988438,
                    12.62189254807957
                ],
                "type": "Point"
            }
        },
        {
            "type": "Feature",
            "properties": {
                "code": "KH020906",
                "name": "Mean Chey"
            },
            "geometry": {
                "coordinates": [
                    102.73307176911727,
                    12.696244395305891
                ],
                "type": "Point"
            }
        },
        {
            "type": "Feature",
            "properties": {
                "code": "KH020907",
                "name": "Ta Sanh"
            },
            "geometry": {
                "coordinates": [
                    102.92028432305533,
                    12.642771230261586
                ],
                "type": "Point"
            }
        },
        {
            "type": "Feature",
            "properties": {
                "code": "KH021001",
                "name": "Sampov Lun"
            },
            "geometry": {
                "coordinates": [
                    102.57211197936648,
                    13.39142895303132
                ],
                "type": "Point"
            }
        },
        {
            "type": "Feature",
            "properties": {
                "code": "KH021002",
                "name": "Angkor Ban"
            },
            "geometry": {
                "coordinates": [
                    102.46399349438715,
                    13.376156084579629
                ],
                "type": "Point"
            }
        },
        {
            "type": "Feature",
            "properties": {
                "code": "KH021003",
                "name": "Ta Sda"
            },
            "geometry": {
                "coordinates": [
                    102.52516299276895,
                    13.420079979205106
                ],
                "type": "Point"
            }
        },
        {
            "type": "Feature",
            "properties": {
                "code": "KH021004",
                "name": "Santepheap"
            },
            "geometry": {
                "coordinates": [
                    102.52749799994146,
                    13.437374638838683
                ],
                "type": "Point"
            }
        },
        {
            "type": "Feature",
            "properties": {
                "code": "KH021005",
                "name": "Serei Mean Chey"
            },
            "geometry": {
                "coordinates": [
                    102.51877287014132,
                    13.452619700113358
                ],
                "type": "Point"
            }
        },
        {
            "type": "Feature",
            "properties": {
                "code": "KH021006",
                "name": "Chrey Seima"
            },
            "geometry": {
                "coordinates": [
                    102.52852606012218,
                    13.469102781018275
                ],
                "type": "Point"
            }
        },
        {
            "type": "Feature",
            "properties": {
                "code": "KH021101",
                "name": "Phnum Proek"
            },
            "geometry": {
                "coordinates": [
                    102.52286801387416,
                    13.313970803681348
                ],
                "type": "Point"
            }
        },
        {
            "type": "Feature",
            "properties": {
                "code": "KH021102",
                "name": "Pech Chenda"
            },
            "geometry": {
                "coordinates": [
                    102.53671707995996,
                    13.217269187958728
                ],
                "type": "Point"
            }
        },
        {
            "type": "Feature",
            "properties": {
                "code": "KH021103",
                "name": "Bour"
            },
            "geometry": {
                "coordinates": [
                    102.50557889022345,
                    13.3586339327764
                ],
                "type": "Point"
            }
        },
        {
            "type": "Feature",
            "properties": {
                "code": "KH021104",
                "name": "Barang Thleak"
            },
            "geometry": {
                "coordinates": [
                    102.50270704456204,
                    13.344251861309855
                ],
                "type": "Point"
            }
        },
        {
            "type": "Feature",
            "properties": {
                "code": "KH021105",
                "name": "Ou Rumduol"
            },
            "geometry": {
                "coordinates": [
                    102.5265284205817,
                    13.264603704243488
                ],
                "type": "Point"
            }
        },
        {
            "type": "Feature",
            "properties": {
                "code": "KH021201",
                "name": "Kamrieng"
            },
            "geometry": {
                "coordinates": [
                    102.53923891351612,
                    13.022714171084669
                ],
                "type": "Point"
            }
        },
        {
            "type": "Feature",
            "properties": {
                "code": "KH021202",
                "name": "Boeng Reang"
            },
            "geometry": {
                "coordinates": [
                    102.4748045626598,
                    13.096000323621636
                ],
                "type": "Point"
            }
        },
        {
            "type": "Feature",
            "properties": {
                "code": "KH021203",
                "name": "Ou Da"
            },
            "geometry": {
                "coordinates": [
                    102.5511856519058,
                    13.102138985731624
                ],
                "type": "Point"
            }
        },
        {
            "type": "Feature",
            "properties": {
                "code": "KH021204",
                "name": "Trang"
            },
            "geometry": {
                "coordinates": [
                    102.48683464748451,
                    13.14039405800879
                ],
                "type": "Point"
            }
        },
        {
            "type": "Feature",
            "properties": {
                "code": "KH021205",
                "name": "Ta Saen"
            },
            "geometry": {
                "coordinates": [
                    102.46674097417248,
                    13.174902308888845
                ],
                "type": "Point"
            }
        },
        {
            "type": "Feature",
            "properties": {
                "code": "KH021206",
                "name": "Ta Krei"
            },
            "geometry": {
                "coordinates": [
                    102.66225470946736,
                    13.153991592321386
                ],
                "type": "Point"
            }
        },
        {
            "type": "Feature",
            "properties": {
                "code": "KH021301",
                "name": "Thipakdei"
            },
            "geometry": {
                "coordinates": [
                    103.25173472199228,
                    12.853081649379376
                ],
                "type": "Point"
            }
        },
        {
            "type": "Feature",
            "properties": {
                "code": "KH021302",
                "name": "Kaos Krala"
            },
            "geometry": {
                "coordinates": [
                    103.26171170730174,
                    12.764484200772287
                ],
                "type": "Point"
            }
        },
        {
            "type": "Feature",
            "properties": {
                "code": "KH021303",
                "name": "Hab"
            },
            "geometry": {
                "coordinates": [
                    103.31564016362864,
                    12.800024958541194
                ],
                "type": "Point"
            }
        },
        {
            "type": "Feature",
            "properties": {
                "code": "KH021304",
                "name": "Preah Phos"
            },
            "geometry": {
                "coordinates": [
                    103.28047052293374,
                    12.686291482760923
                ],
                "type": "Point"
            }
        },
        {
            "type": "Feature",
            "properties": {
                "code": "KH021305",
                "name": "Doun Ba"
            },
            "geometry": {
                "coordinates": [
                    103.16377946114189,
                    12.7837314864009
                ],
                "type": "Point"
            }
        },
        {
            "type": "Feature",
            "properties": {
                "code": "KH021306",
                "name": "Chhnal Moan"
            },
            "geometry": {
                "coordinates": [
                    103.13452312209658,
                    12.610730744132647
                ],
                "type": "Point"
            }
        },
        {
            "type": "Feature",
            "properties": {
                "code": "KH021401",
                "name": "Preaek Chik"
            },
            "geometry": {
                "coordinates": [
                    103.38150057630853,
                    12.638376957513785
                ],
                "type": "Point"
            }
        },
        {
            "type": "Feature",
            "properties": {
                "code": "KH021402",
                "name": "Prey Tralach"
            },
            "geometry": {
                "coordinates": [
                    103.44383111675144,
                    12.578827492553474
                ],
                "type": "Point"
            }
        },
        {
            "type": "Feature",
            "properties": {
                "code": "KH021403",
                "name": "Mukh Reah"
            },
            "geometry": {
                "coordinates": [
                    103.58820706373405,
                    12.567580322017823
                ],
                "type": "Point"
            }
        },
        {
            "type": "Feature",
            "properties": {
                "code": "KH021404",
                "name": "Sdok Pravoek"
            },
            "geometry": {
                "coordinates": [
                    103.51503475818234,
                    12.578016593563934
                ],
                "type": "Point"
            }
        },
        {
            "type": "Feature",
            "properties": {
                "code": "KH021405",
                "name": "Basak"
            },
            "geometry": {
                "coordinates": [
                    103.30280005332486,
                    12.575189706137316
                ],
                "type": "Point"
            }
        },
        {
            "type": "Feature",
            "properties": {
                "code": "KH030101",
                "name": "Batheay"
            },
            "geometry": {
                "coordinates": [
                    104.90325231462634,
                    11.964267590756275
                ],
                "type": "Point"
            }
        },
        {
            "type": "Feature",
            "properties": {
                "code": "KH030102",
                "name": "Chbar Ampov"
            },
            "geometry": {
                "coordinates": [
                    104.98336212264424,
                    11.939170312761876
                ],
                "type": "Point"
            }
        },
        {
            "type": "Feature",
            "properties": {
                "code": "KH030103",
                "name": "Chealea"
            },
            "geometry": {
                "coordinates": [
                    104.94479545295842,
                    11.90590117530052
                ],
                "type": "Point"
            }
        },
        {
            "type": "Feature",
            "properties": {
                "code": "KH030104",
                "name": "Cheung Prey"
            },
            "geometry": {
                "coordinates": [
                    104.95588602883704,
                    12.056401337861397
                ],
                "type": "Point"
            }
        },
        {
            "type": "Feature",
            "properties": {
                "code": "KH030105",
                "name": "Me Pring"
            },
            "geometry": {
                "coordinates": [
                    104.91666006184175,
                    12.031076933908924
                ],
                "type": "Point"
            }
        },
        {
            "type": "Feature",
            "properties": {
                "code": "KH030106",
                "name": "Ph'av"
            },
            "geometry": {
                "coordinates": [
                    104.96953840483916,
                    12.014124076998268
                ],
                "type": "Point"
            }
        },
        {
            "type": "Feature",
            "properties": {
                "code": "KH030107",
                "name": "Sambour"
            },
            "geometry": {
                "coordinates": [
                    104.86993456897748,
                    11.878854136865971
                ],
                "type": "Point"
            }
        },
        {
            "type": "Feature",
            "properties": {
                "code": "KH030108",
                "name": "Sandaek"
            },
            "geometry": {
                "coordinates": [
                    104.995957798173,
                    12.160654477737708
                ],
                "type": "Point"
            }
        },
        {
            "type": "Feature",
            "properties": {
                "code": "KH030109",
                "name": "Tang Krang"
            },
            "geometry": {
                "coordinates": [
                    104.92329566602056,
                    11.849393263908953
                ],
                "type": "Point"
            }
        },
        {
            "type": "Feature",
            "properties": {
                "code": "KH030110",
                "name": "Tang Krasang"
            },
            "geometry": {
                "coordinates": [
                    104.92247734709542,
                    12.08828870233871
                ],
                "type": "Point"
            }
        },
        {
            "type": "Feature",
            "properties": {
                "code": "KH030111",
                "name": "Trab"
            },
            "geometry": {
                "coordinates": [
                    104.93589079684018,
                    12.188382544609956
                ],
                "type": "Point"
            }
        },
        {
            "type": "Feature",
            "properties": {
                "code": "KH030112",
                "name": "Tumnob"
            },
            "geometry": {
                "coordinates": [
                    104.98871237378545,
                    12.091396071091934
                ],
                "type": "Point"
            }
        },
        {
            "type": "Feature",
            "properties": {
                "code": "KH030201",
                "name": "Bos Khnor"
            },
            "geometry": {
                "coordinates": [
                    105.3352524429315,
                    12.17132380579273
                ],
                "type": "Point"
            }
        },
        {
            "type": "Feature",
            "properties": {
                "code": "KH030202",
                "name": "Chamkar Andoung"
            },
            "geometry": {
                "coordinates": [
                    105.20109163948452,
                    12.344868744136331
                ],
                "type": "Point"
            }
        },
        {
            "type": "Feature",
            "properties": {
                "code": "KH030203",
                "name": "Cheyyou"
            },
            "geometry": {
                "coordinates": [
                    105.35808932424156,
                    12.313037495869048
                ],
                "type": "Point"
            }
        },
        {
            "type": "Feature",
            "properties": {
                "code": "KH030204",
                "name": "Lvea Leu"
            },
            "geometry": {
                "coordinates": [
                    105.28394590527998,
                    12.352701976579764
                ],
                "type": "Point"
            }
        },
        {
            "type": "Feature",
            "properties": {
                "code": "KH030205",
                "name": "Spueu"
            },
            "geometry": {
                "coordinates": [
                    105.32763797106352,
                    12.34519193742094
                ],
                "type": "Point"
            }
        },
        {
            "type": "Feature",
            "properties": {
                "code": "KH030206",
                "name": "Svay Teab"
            },
            "geometry": {
                "coordinates": [
                    105.25525828773944,
                    12.286553960133142
                ],
                "type": "Point"
            }
        },
        {
            "type": "Feature",
            "properties": {
                "code": "KH030207",
                "name": "Ta Ong"
            },
            "geometry": {
                "coordinates": [
                    105.29895821591384,
                    12.23727083922252
                ],
                "type": "Point"
            }
        },
        {
            "type": "Feature",
            "properties": {
                "code": "KH030208",
                "name": "Ta Prok"
            },
            "geometry": {
                "coordinates": [
                    105.22878729635624,
                    12.3833279310423
                ],
                "type": "Point"
            }
        },
        {
            "type": "Feature",
            "properties": {
                "code": "KH030301",
                "name": "Khnor Dambang"
            },
            "geometry": {
                "coordinates": [
                    105.01356054696495,
                    12.019941386057589
                ],
                "type": "Point"
            }
        },
        {
            "type": "Feature",
            "properties": {
                "code": "KH030302",
                "name": "Kouk Rovieng"
            },
            "geometry": {
                "coordinates": [
                    104.99107883220437,
                    12.029558638799852
                ],
                "type": "Point"
            }
        },
        {
            "type": "Feature",
            "properties": {
                "code": "KH030303",
                "name": "Pdau Chum"
            },
            "geometry": {
                "coordinates": [
                    105.04216629310714,
                    12.023139534082626
                ],
                "type": "Point"
            }
        },
        {
            "type": "Feature",
            "properties": {
                "code": "KH030304",
                "name": "Prey Char"
            },
            "geometry": {
                "coordinates": [
                    105.09234677180514,
                    12.02052690382832
                ],
                "type": "Point"
            }
        },
        {
            "type": "Feature",
            "properties": {
                "code": "KH030305",
                "name": "Pring Chrum"
            },
            "geometry": {
                "coordinates": [
                    105.0528441260439,
                    12.189028781108645
                ],
                "type": "Point"
            }
        },
        {
            "type": "Feature",
            "properties": {
                "code": "KH030306",
                "name": "Sampong Chey"
            },
            "geometry": {
                "coordinates": [
                    105.11544037855712,
                    12.17686285914273
                ],
                "type": "Point"
            }
        },
        {
            "type": "Feature",
            "properties": {
                "code": "KH030307",
                "name": "Sdaeung Chey"
            },
            "geometry": {
                "coordinates": [
                    105.04900969724876,
                    12.122258776687202
                ],
                "type": "Point"
            }
        },
        {
            "type": "Feature",
            "properties": {
                "code": "KH030308",
                "name": "Soutib"
            },
            "geometry": {
                "coordinates": [
                    105.0674587182614,
                    12.027068507067767
                ],
                "type": "Point"
            }
        },
        {
            "type": "Feature",
            "properties": {
                "code": "KH030309",
                "name": "Sramar"
            },
            "geometry": {
                "coordinates": [
                    105.09142465189667,
                    12.077195298455468
                ],
                "type": "Point"
            }
        },
        {
            "type": "Feature",
            "properties": {
                "code": "KH030310",
                "name": "Trapeang Kor"
            },
            "geometry": {
                "coordinates": [
                    105.10889460377513,
                    12.11314173935008
                ],
                "type": "Point"
            }
        },
        {
            "type": "Feature",
            "properties": {
                "code": "KH030501",
                "name": "Boeng Kok"
            },
            "geometry": {
                "coordinates": [
                    105.4626632269533,
                    12.005304061062589
                ],
                "type": "Point"
            }
        },
        {
            "type": "Feature",
            "properties": {
                "code": "KH030502",
                "name": "Kampong Cham"
            },
            "geometry": {
                "coordinates": [
                    105.46275649467766,
                    11.993837709731984
                ],
                "type": "Point"
            }
        },
        {
            "type": "Feature",
            "properties": {
                "code": "KH030503",
                "name": "Sambuor Meas"
            },
            "geometry": {
                "coordinates": [
                    105.42943108387536,
                    11.97904119277
                ],
                "type": "Point"
            }
        },
        {
            "type": "Feature",
            "properties": {
                "code": "KH030504",
                "name": "Veal Vong"
            },
            "geometry": {
                "coordinates": [
                    105.4589278682636,
                    11.986441956096886
                ],
                "type": "Point"
            }
        },
        {
            "type": "Feature",
            "properties": {
                "code": "KH030601",
                "name": "Ampil"
            },
            "geometry": {
                "coordinates": [
                    105.41419850334982,
                    12.005971355005508
                ],
                "type": "Point"
            }
        },
        {
            "type": "Feature",
            "properties": {
                "code": "KH030602",
                "name": "Hanchey"
            },
            "geometry": {
                "coordinates": [
                    105.50993300884912,
                    12.148109672770406
                ],
                "type": "Point"
            }
        },
        {
            "type": "Feature",
            "properties": {
                "code": "KH030603",
                "name": "Kien Chrey"
            },
            "geometry": {
                "coordinates": [
                    105.48407013350064,
                    12.090213039573962
                ],
                "type": "Point"
            }
        },
        {
            "type": "Feature",
            "properties": {
                "code": "KH030604",
                "name": "Kokor"
            },
            "geometry": {
                "coordinates": [
                    105.36015864488738,
                    11.952560172783585
                ],
                "type": "Point"
            }
        },
        {
            "type": "Feature",
            "properties": {
                "code": "KH030605",
                "name": "Kaoh Mitt"
            },
            "geometry": {
                "coordinates": [
                    105.44415810147402,
                    11.95097472294514
                ],
                "type": "Point"
            }
        },
        {
            "type": "Feature",
            "properties": {
                "code": "KH030606",
                "name": "Kaoh Roka"
            },
            "geometry": {
                "coordinates": [
                    105.40328563419536,
                    11.959564734365603
                ],
                "type": "Point"
            }
        },
        {
            "type": "Feature",
            "properties": {
                "code": "KH030607",
                "name": "Kaoh Samraong"
            },
            "geometry": {
                "coordinates": [
                    105.51942506654946,
                    12.056872889712558
                ],
                "type": "Point"
            }
        },
        {
            "type": "Feature",
            "properties": {
                "code": "KH030608",
                "name": "Kaoh Tontuem"
            },
            "geometry": {
                "coordinates": [
                    105.38473809575996,
                    11.932221560802576
                ],
                "type": "Point"
            }
        },
        {
            "type": "Feature",
            "properties": {
                "code": "KH030609",
                "name": "Krala"
            },
            "geometry": {
                "coordinates": [
                    105.39086307679676,
                    12.04865933399922
                ],
                "type": "Point"
            }
        },
        {
            "type": "Feature",
            "properties": {
                "code": "KH030610",
                "name": "Ou Svay"
            },
            "geometry": {
                "coordinates": [
                    105.37457634735,
                    12.092843437864165
                ],
                "type": "Point"
            }
        },
        {
            "type": "Feature",
            "properties": {
                "code": "KH030611",
                "name": "Ro'ang"
            },
            "geometry": {
                "coordinates": [
                    105.45903600061312,
                    12.040771624957548
                ],
                "type": "Point"
            }
        },
        {
            "type": "Feature",
            "properties": {
                "code": "KH030612",
                "name": "Rumchek"
            },
            "geometry": {
                "coordinates": [
                    105.5083474302317,
                    12.108536085000576
                ],
                "type": "Point"
            }
        },
        {
            "type": "Feature",
            "properties": {
                "code": "KH030613",
                "name": "Srak"
            },
            "geometry": {
                "coordinates": [
                    105.43972854075032,
                    12.14713300140438
                ],
                "type": "Point"
            }
        },
        {
            "type": "Feature",
            "properties": {
                "code": "KH030614",
                "name": "Trean"
            },
            "geometry": {
                "coordinates": [
                    105.43299347671956,
                    12.084238692282398
                ],
                "type": "Point"
            }
        },
        {
            "type": "Feature",
            "properties": {
                "code": "KH030615",
                "name": "Vihear Thum"
            },
            "geometry": {
                "coordinates": [
                    105.36008002770848,
                    12.003544592883449
                ],
                "type": "Point"
            }
        },
        {
            "type": "Feature",
            "properties": {
                "code": "KH030701",
                "name": "Angkor Ban"
            },
            "geometry": {
                "coordinates": [
                    105.21823817771649,
                    11.965613323121996
                ],
                "type": "Point"
            }
        },
        {
            "type": "Feature",
            "properties": {
                "code": "KH030702",
                "name": "Kang Ta Noeng"
            },
            "geometry": {
                "coordinates": [
                    105.06552147656856,
                    11.87589542512718
                ],
                "type": "Point"
            }
        },
        {
            "type": "Feature",
            "properties": {
                "code": "KH030703",
                "name": "Khchau"
            },
            "geometry": {
                "coordinates": [
                    105.13565673027792,
                    11.924110413492128
                ],
                "type": "Point"
            }
        },
        {
            "type": "Feature",
            "properties": {
                "code": "KH030704",
                "name": "Peam Chi Kang"
            },
            "geometry": {
                "coordinates": [
                    105.2449873044715,
                    11.944114852669957
                ],
                "type": "Point"
            }
        },
        {
            "type": "Feature",
            "properties": {
                "code": "KH030705",
                "name": "Preaek Koy"
            },
            "geometry": {
                "coordinates": [
                    105.02266398079016,
                    11.91505234601577
                ],
                "type": "Point"
            }
        },
        {
            "type": "Feature",
            "properties": {
                "code": "KH030706",
                "name": "Preaek Krabau"
            },
            "geometry": {
                "coordinates": [
                    105.26540928674846,
                    11.992564574084737
                ],
                "type": "Point"
            }
        },
        {
            "type": "Feature",
            "properties": {
                "code": "KH030707",
                "name": "Reay Pay"
            },
            "geometry": {
                "coordinates": [
                    105.09425800776016,
                    11.953135483838214
                ],
                "type": "Point"
            }
        },
        {
            "type": "Feature",
            "properties": {
                "code": "KH030708",
                "name": "Roka Ar"
            },
            "geometry": {
                "coordinates": [
                    105.10884744273214,
                    11.877123877715608
                ],
                "type": "Point"
            }
        },
        {
            "type": "Feature",
            "properties": {
                "code": "KH030709",
                "name": "Roka Koy"
            },
            "geometry": {
                "coordinates": [
                    105.30889205655583,
                    11.957036552119014
                ],
                "type": "Point"
            }
        },
        {
            "type": "Feature",
            "properties": {
                "code": "KH030710",
                "name": "Sdau"
            },
            "geometry": {
                "coordinates": [
                    105.0264131274622,
                    11.869665949714715
                ],
                "type": "Point"
            }
        },
        {
            "type": "Feature",
            "properties": {
                "code": "KH030711",
                "name": "Sour Kong"
            },
            "geometry": {
                "coordinates": [
                    105.16961851445824,
                    11.979690973035192
                ],
                "type": "Point"
            }
        },
        {
            "type": "Feature",
            "properties": {
                "code": "KH030801",
                "name": "Kampong Reab"
            },
            "geometry": {
                "coordinates": [
                    105.36695276403714,
                    11.902194822140098
                ],
                "type": "Point"
            }
        },
        {
            "type": "Feature",
            "properties": {
                "code": "KH030802",
                "name": "Kaoh Sotin"
            },
            "geometry": {
                "coordinates": [
                    105.4267162151017,
                    11.919338004918004
                ],
                "type": "Point"
            }
        },
        {
            "type": "Feature",
            "properties": {
                "code": "KH030803",
                "name": "Lve"
            },
            "geometry": {
                "coordinates": [
                    105.37134390405116,
                    11.864131116007128
                ],
                "type": "Point"
            }
        },
        {
            "type": "Feature",
            "properties": {
                "code": "KH030804",
                "name": "Moha Leaph"
            },
            "geometry": {
                "coordinates": [
                    105.4309098749486,
                    11.848727825748748
                ],
                "type": "Point"
            }
        },
        {
            "type": "Feature",
            "properties": {
                "code": "KH030805",
                "name": "Moha Khnhoung"
            },
            "geometry": {
                "coordinates": [
                    105.32237127416724,
                    11.91185768282375
                ],
                "type": "Point"
            }
        },
        {
            "type": "Feature",
            "properties": {
                "code": "KH030806",
                "name": "Peam Prathnuoh"
            },
            "geometry": {
                "coordinates": [
                    105.419407795475,
                    11.887471952554025
                ],
                "type": "Point"
            }
        },
        {
            "type": "Feature",
            "properties": {
                "code": "KH030807",
                "name": "Pongro"
            },
            "geometry": {
                "coordinates": [
                    105.44303352304296,
                    11.882153270603329
                ],
                "type": "Point"
            }
        },
        {
            "type": "Feature",
            "properties": {
                "code": "KH030808",
                "name": "Preaek Ta Nong"
            },
            "geometry": {
                "coordinates": [
                    105.28881765763482,
                    11.882795686277063
                ],
                "type": "Point"
            }
        },
        {
            "type": "Feature",
            "properties": {
                "code": "KH031301",
                "name": "Baray"
            },
            "geometry": {
                "coordinates": [
                    105.25075967154515,
                    12.09553230212843
                ],
                "type": "Point"
            }
        },
        {
            "type": "Feature",
            "properties": {
                "code": "KH031302",
                "name": "Boeng Nay"
            },
            "geometry": {
                "coordinates": [
                    105.1699459487379,
                    12.159106964856855
                ],
                "type": "Point"
            }
        },
        {
            "type": "Feature",
            "properties": {
                "code": "KH031303",
                "name": "Chrey Vien"
            },
            "geometry": {
                "coordinates": [
                    105.24651767150844,
                    12.03820227387704
                ],
                "type": "Point"
            }
        },
        {
            "type": "Feature",
            "properties": {
                "code": "KH031304",
                "name": "Khvet Thum"
            },
            "geometry": {
                "coordinates": [
                    105.2127033540432,
                    12.06303023685594
                ],
                "type": "Point"
            }
        },
        {
            "type": "Feature",
            "properties": {
                "code": "KH031305",
                "name": "Kor"
            },
            "geometry": {
                "coordinates": [
                    105.21857696233045,
                    12.123717226004262
                ],
                "type": "Point"
            }
        },
        {
            "type": "Feature",
            "properties": {
                "code": "KH031306",
                "name": "Krouch"
            },
            "geometry": {
                "coordinates": [
                    105.19227746612478,
                    12.130628103219026
                ],
                "type": "Point"
            }
        },
        {
            "type": "Feature",
            "properties": {
                "code": "KH031307",
                "name": "Lvea"
            },
            "geometry": {
                "coordinates": [
                    105.17594885168928,
                    12.034958827303589
                ],
                "type": "Point"
            }
        },
        {
            "type": "Feature",
            "properties": {
                "code": "KH031308",
                "name": "Mien"
            },
            "geometry": {
                "coordinates": [
                    105.31081468376615,
                    12.031456202416583
                ],
                "type": "Point"
            }
        },
        {
            "type": "Feature",
            "properties": {
                "code": "KH031309",
                "name": "Prey Chhor"
            },
            "geometry": {
                "coordinates": [
                    105.18797621578162,
                    12.081859652585898
                ],
                "type": "Point"
            }
        },
        {
            "type": "Feature",
            "properties": {
                "code": "KH031310",
                "name": "Sour Saen"
            },
            "geometry": {
                "coordinates": [
                    105.14637955411482,
                    12.08395483192607
                ],
                "type": "Point"
            }
        },
        {
            "type": "Feature",
            "properties": {
                "code": "KH031311",
                "name": "Samraong"
            },
            "geometry": {
                "coordinates": [
                    105.126356119496,
                    12.026316765144218
                ],
                "type": "Point"
            }
        },
        {
            "type": "Feature",
            "properties": {
                "code": "KH031312",
                "name": "Sragnae"
            },
            "geometry": {
                "coordinates": [
                    105.14400886488896,
                    12.056233107328676
                ],
                "type": "Point"
            }
        },
        {
            "type": "Feature",
            "properties": {
                "code": "KH031313",
                "name": "Thma Pun"
            },
            "geometry": {
                "coordinates": [
                    105.24931657013248,
                    12.153170738107022
                ],
                "type": "Point"
            }
        },
        {
            "type": "Feature",
            "properties": {
                "code": "KH031314",
                "name": "Tong Rong"
            },
            "geometry": {
                "coordinates": [
                    105.20846771949844,
                    12.019160002065208
                ],
                "type": "Point"
            }
        },
        {
            "type": "Feature",
            "properties": {
                "code": "KH031315",
                "name": "Trapeang Preah"
            },
            "geometry": {
                "coordinates": [
                    105.30744462540773,
                    12.094374934774356
                ],
                "type": "Point"
            }
        },
        {
            "type": "Feature",
            "properties": {
                "code": "KH031401",
                "name": "Baray"
            },
            "geometry": {
                "coordinates": [
                    105.2073340760966,
                    11.83915814217183
                ],
                "type": "Point"
            }
        },
        {
            "type": "Feature",
            "properties": {
                "code": "KH031402",
                "name": "Chi Bal"
            },
            "geometry": {
                "coordinates": [
                    105.10016993315584,
                    11.752420113039271
                ],
                "type": "Point"
            }
        },
        {
            "type": "Feature",
            "properties": {
                "code": "KH031403",
                "name": "Khnar Sa"
            },
            "geometry": {
                "coordinates": [
                    105.11391022707744,
                    11.792785176459544
                ],
                "type": "Point"
            }
        },
        {
            "type": "Feature",
            "properties": {
                "code": "KH031404",
                "name": "Kaoh Andaet"
            },
            "geometry": {
                "coordinates": [
                    105.26332936155822,
                    11.92000270882184
                ],
                "type": "Point"
            }
        },
        {
            "type": "Feature",
            "properties": {
                "code": "KH031405",
                "name": "Mean Chey"
            },
            "geometry": {
                "coordinates": [
                    105.06309245216424,
                    11.832649456053744
                ],
                "type": "Point"
            }
        },
        {
            "type": "Feature",
            "properties": {
                "code": "KH031406",
                "name": "Phteah Kandal"
            },
            "geometry": {
                "coordinates": [
                    105.14777082135714,
                    11.85080873493939
                ],
                "type": "Point"
            }
        },
        {
            "type": "Feature",
            "properties": {
                "code": "KH031407",
                "name": "Pram Yam"
            },
            "geometry": {
                "coordinates": [
                    105.16755213891444,
                    11.79465510221702
                ],
                "type": "Point"
            }
        },
        {
            "type": "Feature",
            "properties": {
                "code": "KH031408",
                "name": "Preaek Dambouk"
            },
            "geometry": {
                "coordinates": [
                    105.16649113608516,
                    11.888324622379969
                ],
                "type": "Point"
            }
        },
        {
            "type": "Feature",
            "properties": {
                "code": "KH031409",
                "name": "Preaek Pou"
            },
            "geometry": {
                "coordinates": [
                    105.1082397998566,
                    11.826848115856077
                ],
                "type": "Point"
            }
        },
        {
            "type": "Feature",
            "properties": {
                "code": "KH031410",
                "name": "Preaek Rumdeng"
            },
            "geometry": {
                "coordinates": [
                    105.24286951945942,
                    11.870141885931528
                ],
                "type": "Point"
            }
        },
        {
            "type": "Feature",
            "properties": {
                "code": "KH031411",
                "name": "Ruessei Srok"
            },
            "geometry": {
                "coordinates": [
                    105.20050276645176,
                    11.929348560132416
                ],
                "type": "Point"
            }
        },
        {
            "type": "Feature",
            "properties": {
                "code": "KH031412",
                "name": "Svay Pou"
            },
            "geometry": {
                "coordinates": [
                    105.07147694699168,
                    11.786513579931135
                ],
                "type": "Point"
            }
        },
        {
            "type": "Feature",
            "properties": {
                "code": "KH031413",
                "name": "Svay Khsach Phnum"
            },
            "geometry": {
                "coordinates": [
                    105.18248672115853,
                    11.91160057938498
                ],
                "type": "Point"
            }
        },
        {
            "type": "Feature",
            "properties": {
                "code": "KH031414",
                "name": "Tong Tralach"
            },
            "geometry": {
                "coordinates": [
                    105.13262722800806,
                    11.765230974104398
                ],
                "type": "Point"
            }
        },
        {
            "type": "Feature",
            "properties": {
                "code": "KH031501",
                "name": "Areaks Tnot"
            },
            "geometry": {
                "coordinates": [
                    105.62879491291532,
                    12.386775096261868
                ],
                "type": "Point"
            }
        },
        {
            "type": "Feature",
            "properties": {
                "code": "KH031503",
                "name": "Dang Kdar"
            },
            "geometry": {
                "coordinates": [
                    105.439614994958,
                    12.405308559596916
                ],
                "type": "Point"
            }
        },
        {
            "type": "Feature",
            "properties": {
                "code": "KH031504",
                "name": "Khpob Ta Nguon"
            },
            "geometry": {
                "coordinates": [
                    105.7320739413708,
                    12.34653186886369
                ],
                "type": "Point"
            }
        },
        {
            "type": "Feature",
            "properties": {
                "code": "KH031505",
                "name": "Me Sar Chrey"
            },
            "geometry": {
                "coordinates": [
                    105.4160324095333,
                    12.31775570477366
                ],
                "type": "Point"
            }
        },
        {
            "type": "Feature",
            "properties": {
                "code": "KH031506",
                "name": "Ou Mlu"
            },
            "geometry": {
                "coordinates": [
                    105.55779528075163,
                    12.426345985497994
                ],
                "type": "Point"
            }
        },
        {
            "type": "Feature",
            "properties": {
                "code": "KH031507",
                "name": "Peam Kaoh Snar"
            },
            "geometry": {
                "coordinates": [
                    105.64983853526589,
                    12.315161832343083
                ],
                "type": "Point"
            }
        },
        {
            "type": "Feature",
            "properties": {
                "code": "KH031508",
                "name": "Preah Andoung"
            },